id,lat,lon,e,alat,alon,educational,topics,languages,name,type,parent,parenttype,mo_o,mo_c,tu_o,tu_c,we_o,we_c,th_o,th_c,fr_o,fr_c,all,over,under
274129,52.5053876,13.5528564,0,52.50581,13.55291,"0",,,"casa dei bambini",0,0,0,06:00,18:00,06:00,18:00,06:00,18:00,06:00,18:00,06:00,18:00,100,73,27
2032,52.49747,13.51174,0,52.49741,13.5119,"1",,,"Erlebniswelt",0,0,0,06:00,18:00,06:00,18:00,06:00,18:00,06:00,18:00,06:00,18:00,196,134,62
1376,52.4794894,13.4406379,0,52.47999,13.44072,"2|3","0|1|2|3|4|5","0|1|2|3","Mosaik",0,1,1,06:00,17:00,06:00,17:00,06:00,17:00,06:00,17:00,06:00,17:00,130,85,45
640,52.5282358,13.6180662,0,52.52823,13.61797,"2",,,"Naseweis",0,0,0,06:00,18:00,06:00,18:00,06:00,18:00,06:00,18:00,06:00,18:00,185,135,50
2148,52.54892,13.56246,0,52.54884,13.56259,"2",,,"Schwalbennest",0,0,0,06:00,18:00,06:00,18:00,06:00,18:00,06:00,18:00,06:00,18:00,202,153,49
2010,52.5183049,13.4827176,0,52.51842,13.48247,"2",,,"Sonnengarten",0,0,0,06:00,18:00,06:00,18:00,06:00,18:00,06:00,18:00,06:00,18:00,65,47,18
627,52.5252217,13.4746268,0,52.52516,13.47473,"4",,,"Spatzennest",0,0,0,06:00,18:00,06:00,18:00,06:00,18:00,06:00,18:00,06:00,18:00,158,116,42
2060,52.5593051,13.4761485,1,52.55666,13.46483,,,,"Villa Seegarten",0,0,0,06:30,17:30,06:30,17:30,06:30,17:30,06:30,17:30,06:30,17:30,50,29,21
2523,52.62904,13.38272,0,52.62843,13.38757,,"6",,"Waldkindergarten Pankow e.V. - Die Waldläufer",0,2,2,0,0,0,0,0,0,0,0,0,0,39,25,14
452129,52.4894012,13.4548858,0,52.48921,13.45475,,,,"2. Kita Pretty World",0,3,1,0,0,0,0,0,0,0,0,0,0,45,45,0
608229,52.47892,13.51381,0,52.47888,13.51387,"2",,,"ABC Kindergarten",0,4,1,07:00,17:00,07:00,17:00,07:00,17:00,07:00,17:00,07:00,17:00,25,15,10
2781,52.49792000000001,13.302,0,52.49789,13.30196,"2",,,"ABC-Kindergarten",0,4,1,08:00,17:00,08:00,17:00,08:00,17:00,08:00,17:00,08:00,17:00,25,15,10
686229,52.5118419,13.3881619,0,52.51187,13.38819,,,"1|4","Alegria Kiga",0,5,1,07:30,18:30,07:30,18:30,07:30,18:30,07:30,18:30,07:30,18:30,48,30,18
56,52.52968000000001,13.43022,0,52.52949,13.42994,"5",,,"Am Hain",0,0,0,06:00,18:00,06:00,18:00,06:00,18:00,06:00,18:00,06:00,18:00,80,58,22
209,52.428169,13.543557,0,52.4282,13.54352,"2",,,"Am Studio 5 / Kitas SüdOst",0,6,0,06:00,18:00,06:00,18:00,06:00,18:00,06:00,18:00,06:00,18:00,83,53,30
606279,52.6051176,13.4325524,0,52.60486,13.43211,,,,"ASB Hugenottenhofkita Berlin",0,7,1,0,0,0,0,0,0,0,0,0,0,123,null,null
182129,52.4959684,13.4745211,0,52.49579,13.47457,"6|2",,,"Außenstelle FRÖBEL Kindergarten Palmkernzeile",0,8,1,06:00,18:00,06:00,18:00,06:00,18:00,06:00,18:00,06:00,18:00,20,20,0
2425,52.4916552,13.404509,0,52.49107,13.40597,"7|2",,,"AWO Europakita",0,9,3,06:00,17:00,06:00,17:00,06:00,17:00,06:00,17:00,06:00,17:00,90,54,36
480129,52.5247201,13.3464529,0,52.52477,13.34646,,,,"AWO Kita am Spreebogen",0,9,3,0,0,0,0,0,0,0,0,0,0,40,30,10
1125,52.4029373,13.5098348,0,52.40287,13.5099,"2",,,"AWO Kita Die wilde 13",0,10,3,06:00,18:00,06:00,18:00,06:00,18:00,06:00,18:00,06:00,18:00,105,105,0
1454,52.59814,13.30593,0,52.5981,13.30572,"2",,,"AWO Kita Freie Scholle",0,10,3,06:00,18:00,06:00,18:00,06:00,18:00,06:00,18:00,06:00,18:00,75,57,18
1996,52.4851912,13.5340077,0,52.48522,13.53412,"2",,,"AWO Kita Grashüpfer",0,10,3,07:00,18:00,07:00,18:00,07:00,18:00,07:00,18:00,07:00,18:00,150,150,0
1109,52.49534999999999,13.43189,0,52.49528,13.43187,"2",,,"AWO Kita Kastanie",0,9,3,06:00,17:00,06:00,17:00,06:00,17:00,06:00,17:00,06:00,17:00,60,36,24
1020,52.56924,13.30816,0,52.56918,13.30844,"2",,,"AWO Kita Kinderwelt",0,10,3,06:00,18:00,06:00,18:00,06:00,18:00,06:00,18:00,06:00,18:00,135,95,40
2424,52.4927395,13.4026517,0,52.49268,13.40258,"7|8|1|2",,,"AWO Kita Löwenzahn",0,9,3,06:00,17:00,06:00,17:00,06:00,17:00,06:00,17:00,06:00,17:00,106,66,40
2314,52.5032376,13.3566709,0,52.50326,13.35661,"2","2|3",,"AWO Kita Maulwurf",0,9,3,07:00,17:00,07:00,17:00,07:00,17:00,07:00,17:00,07:00,16:30,56,41,15
2736,52.454704,13.6210976,0,52.45466,13.62078,"2",,,"AWO Kita Müggelzwerge",0,10,3,06:00,18:00,06:00,18:00,06:00,18:00,06:00,18:00,06:00,18:00,75,75,0
552,52.5468238,13.3918514,0,52.54669,13.39172,"2",,,"AWO Kita Rosa Marzipan",0,9,3,06:30,17:30,06:30,17:30,06:30,17:30,06:30,17:30,06:30,17:30,32,14,18
2786,52.4350438,13.4573353,0,52.43501,13.45824,"2",,,"AWO Kita Schatzinsel",0,10,3,06:00,17:30,06:00,17:30,06:00,17:30,06:00,17:30,06:00,17:30,105,81,24
726,52.526222,13.348893,1,52.52684,13.3323,"2","0|1|2|3|4",,"AWO Kita Schmetterling",0,9,3,07:00,17:00,07:00,17:00,07:00,17:00,07:00,17:00,07:00,16:00,65,45,20
1219,52.5528215,13.2494302,1,52.57594,13.27647,"9|10|4|2",,,"AWO Kita Schneckenhaus",0,10,3,06:00,18:00,06:00,18:00,06:00,18:00,06:00,18:00,06:00,18:00,90,90,0
553,52.5543619,13.3659834,0,52.55432,13.36565,"8|10|11|4|2",,,"AWO Kita Sonnenblume",0,9,3,06:00,17:00,06:00,17:00,06:00,17:00,06:00,17:00,06:00,17:00,157,127,30
2737,52.4378176,13.556519,0,52.43755,13.55659,"2",,,"AWO Kita Sonnenkinder",0,10,3,06:00,17:30,06:00,17:30,06:00,17:30,06:00,17:30,06:00,17:30,70,49,21
2735,52.47511,13.47483,0,52.4752,13.47536,"9|4|1|2",,,"AWO Kita Spatzennest",0,10,3,06:00,17:30,06:00,17:30,06:00,17:30,06:00,17:30,06:00,17:30,136,86,50
904,52.5002,13.42242,0,52.50016,13.42252,"8|2",,,"AWO Kita Wassertropfen",0,9,3,06:00,17:00,06:00,17:00,06:00,17:00,06:00,17:00,06:00,17:00,54,52,2
337129,52.53339,13.54169,0,52.53319,13.5416,"2","0|2",,"AWO pro:mensch",0,11,3,06:00,18:00,06:00,18:00,06:00,18:00,06:00,18:00,06:00,18:00,120,120,0
1568,52.53432,13.13592,0,52.53422,13.13593,"2","0|1|2|3|4|6",,"AWO-Kita Feldhäuschen",0,12,3,06:30,17:30,06:30,17:30,06:30,17:30,06:30,17:30,06:30,17:00,85,59,26
557,52.4568009,13.1550512,0,52.45847,13.15615,"2","4",,"AWO-Kita Kladow",0,12,3,07:00,17:00,07:00,17:00,07:00,17:00,07:00,17:00,07:00,17:00,90,70,20
537,52.4706761,13.1299749,0,52.47075,13.13022,"2","2",,"AWO-Kita Landstadt Gatow",0,12,3,06:00,18:00,06:00,18:00,06:00,18:00,06:00,18:00,06:00,18:00,140,90,50
1715,52.5512672,13.1652305,1,52.54635,13.1921,,,,"AWO-Kita Sternschnuppe",0,12,3,06:00,17:30,06:00,17:30,06:00,17:30,06:00,17:30,06:00,16:30,195,137,58
1520,52.55256,13.21009,0,52.55252,13.21016,"10","2|3|4",,"AWO-Kita Wundertüte",0,12,3,06:00,17:00,06:00,17:00,06:00,17:00,06:00,17:00,06:00,17:00,140,102,38
2783,52.53154000000001,13.14643,0,52.53136,13.14632,"2",,,"AWO-Kita Zwergenwinkel",0,12,3,06:00,17:30,06:00,17:30,06:00,17:30,06:00,17:30,06:00,17:00,139,101,38
524229,52.5352451,13.4444337,0,52.53482,13.44429,"12","0",,"Bambini-Oase - Casa gialla",0,13,1,06:30,17:30,06:30,17:30,06:30,17:30,06:30,17:30,06:30,17:30,55,30,25
364229,52.5262025,13.3681369,1,52.53154,13.38898,"13|0|12|2|3","0|1|2|3|4|6|5","1","BCS Kindergarten Preschool",0,14,1,07:30,18:00,07:30,18:00,07:30,18:00,07:30,18:00,07:30,18:00,320,217,103
1097,52.5478767,13.4220132,0,52.54771,13.42238,"13|2","2|3","1","Berlin Kids international Kita",0,15,1,06:30,17:30,06:30,17:30,06:30,17:30,06:30,17:30,06:30,17:30,85,69,16
2986,52.5221879,13.4093313,1,52.52692,13.39049,"3",,"1","Berlin Metropolitan School",1,16,1,07:30,18:00,07:30,18:00,07:30,18:00,07:30,18:00,07:30,18:00,130,130,0
519229,52.4539686,13.5681187,1,52.37497,13.64385,,,,"Bewegte Kita",0,17,1,0,0,0,0,0,0,0,0,0,0,23,17,6
205129,52.4693999,13.3307791,0,52.46944,13.33059,"0",,"1","Bilinguales Montessori-Kinderhaus Friedenau",0,18,1,07:00,18:00,07:00,18:00,07:00,18:00,07:00,18:00,07:00,18:00,100,60,40
672279,52.4609452,13.528007,1,52.49131,13.52696,,,,"BIP Kreativitätskita Treskow-Höfe",0,19,1,07:00,18:00,07:00,18:00,07:00,18:00,07:00,18:00,07:00,18:00,100,65,35
594,52.53776999999999,13.61764,0,52.53781,13.61788,"2|3","0|1|2|4|6",,"BOOT-Kita Am Kirschbaum",0,20,1,06:00,18:00,06:00,18:00,06:00,18:00,06:00,18:00,06:00,18:00,167,105,62
1028,52.50105,13.33815,0,52.50104,13.33828,"2","2",,"BOOT-Kita Augsburg",0,20,1,07:00,18:00,07:00,18:00,07:00,18:00,07:00,18:00,07:00,18:00,162,107,55
181,52.51345999999999,13.4362,0,52.51358,13.43601,"2","2",,"BOOT-Kita Farbenland",0,20,1,06:00,18:00,06:00,18:00,06:00,18:00,06:00,18:00,06:00,18:00,186,98,88
611,52.42935629999999,13.3818555,1,52.43274,13.38337,"2","2|4",,"BOOT-Kita Fritz-Werner",0,20,1,06:00,18:00,06:00,18:00,06:00,18:00,06:00,18:00,06:00,18:00,157,86,71
2265,52.53654,13.58905,0,52.53657,13.58899,"2","2",,"BOOT-Kita Haus Lach und Krach",0,20,1,06:00,18:00,06:00,18:00,06:00,18:00,06:00,18:00,06:00,18:00,139,80,59
1874,52.480714,13.3614014,0,52.48052,13.36158,"2",,,"BOOT-Kita Sonneninsel",0,20,1,06:00,18:00,06:00,18:00,06:00,18:00,06:00,18:00,06:00,18:00,130,83,47
636,52.51644,13.58041,0,52.51618,13.58054,"2","2",,"BOOT-Kita Spatzenhaus",0,20,1,06:00,18:00,06:00,18:00,06:00,18:00,06:00,18:00,06:00,18:00,192,117,75
612,52.3972,13.41666,0,52.39707,13.41506,,,,"BOOT-Kita Traumburg",0,20,1,06:00,18:00,06:00,18:00,06:00,18:00,06:00,18:00,06:00,18:00,153,98,55
463,52.59067,13.36592,0,52.59067,13.36629,"2","0|1|2|4|6",,"BOOT-Kita Uhlandzwerge",0,20,1,06:00,18:00,06:00,18:00,06:00,18:00,06:00,18:00,06:00,18:00,185,108,77
2239,52.5415034,13.5856711,0,52.54147,13.58572,"2","0|1|2|4|6|5",,"BOOT-Kita Wummelbude",0,20,1,06:00,18:00,06:00,18:00,06:00,18:00,06:00,18:00,06:00,18:00,169,99,70
690,52.4480476,13.4519726,1,52.42678,13.43398,"14",,,"Buckower Spatzen Bewegungskindergarten",0,21,1,06:00,17:00,06:00,17:00,06:00,17:00,06:00,17:00,06:00,17:00,95,65,30
461129,52.4397871,13.6032894,0,52.4412,13.60632,"2|3","2|4|6",,"Bude-Kids",2,22,1,07:30,12:30,07:30,12:30,07:30,12:30,07:30,12:30,07:30,12:30,15,15,0
789,52.5726629,13.5757249,0,52.57264,13.57542,"2|3","1|2|4",,"Bunte Kinderwelt",0,23,1,06:00,18:00,06:00,18:00,06:00,18:00,06:00,18:00,06:00,18:00,220,158,62
764329,52.4538683,13.3238273,0,52.45378,13.32391,,,,"Cardelinas",0,24,1,08:00,17:00,08:00,17:00,08:00,17:00,08:00,17:00,08:00,17:00,42,null,null
444129,52.4789349,13.5289146,0,52.4789,13.52888,"2","0|1|2|3|4","1","Carlis Ponyhof",0,25,1,06:30,18:30,06:30,18:30,06:30,18:30,06:30,18:30,06:30,18:30,150,75,75
708229,52.535729,13.4296919,0,52.53558,13.42963,"2","2|3|4","1","Cheburashka - Winsviertel",0,26,1,08:00,18:00,08:00,18:00,08:00,18:00,08:00,18:00,08:00,18:00,20,14,6
153129,52.5252446,13.2988103,0,52.52535,13.29891,"2","2","5","Cheburashka-Charlottenburg",0,26,1,08:00,17:00,08:00,17:00,08:00,17:00,08:00,17:00,08:00,17:00,17,12,5
242179,52.39399,13.42022,0,52.39394,13.42029,"2","2|3|4","5","Cheburashka-Tempelhof",0,26,1,07:00,17:00,07:00,17:00,07:00,17:00,07:00,17:00,07:00,17:00,24,18,6
662229,52.5255561,13.4698914,0,52.52532,13.4714,,,,"Christliche Kita Fischlein",0,27,1,0,0,0,0,0,0,0,0,0,0,25,null,null
100029,52.63024,13.28686,0,52.63011,13.28688,"0","2","1","Christliche Montessori-Kindertagesstätte",0,28,1,07:30,16:30,07:30,16:30,07:30,16:30,07:30,16:30,07:30,16:30,35,23,12
128179,52.5070493,13.4950091,0,52.50709,13.49498,"2","4",,"CityKids Berlin",0,29,1,07:00,18:00,07:00,18:00,07:00,18:00,07:00,18:00,07:00,18:00,89,49,40
1741,52.5385,13.26719,0,52.53848,13.26828,"2",,,"CJD Kindertagesstätte Stubs und Fridolin",0,30,1,0,0,0,0,0,0,0,0,0,0,80,64,16
454129,52.4047657,13.5255502,0,52.4047,13.52552,"2","1|4",,"CJD Kita an der Milchstraße",0,30,1,06:00,17:00,06:00,17:00,06:00,17:00,06:00,17:00,06:00,17:00,180,120,60
709329,52.5486154,13.4162336,0,52.54863,13.4159,,,,"Coworking Toddler Prenzlauer Berg",0,31,1,0,0,0,0,0,0,0,0,0,0,12,null,null
584229,52.5463158,13.5113802,0,52.54599,13.51209,,,"4","das Bildungshaus",0,32,1,0,0,0,0,0,0,0,0,0,0,50,null,null
520229,52.5576,13.20739,0,52.55759,13.20754,"2","0|1|4",,"Das Haus der kleinen Freunde",0,33,1,07:00,17:00,07:00,17:00,07:00,17:00,07:00,17:00,07:00,17:00,25,16,9
148129,52.5517268,13.4123013,1,52.5406,13.41879,,,,"Deutsch-chinesische Kita",1,34,2,08:00,17:00,08:00,17:00,08:00,17:00,08:00,17:00,08:00,17:00,27,27,0
2984,52.49381,13.32223,0,52.49375,13.3221,,,,"Deutsch-Englischer Kindergarten Lilolei",0,35,1,08:00,17:00,08:00,17:00,08:00,17:00,08:00,17:00,08:00,17:00,30,25,5
2937,52.5200749,13.4613529,0,52.52015,13.46155,"3","2","6","Deutsch-Französische Kita ",0,36,1,08:00,17:00,08:00,17:00,08:00,17:00,08:00,17:00,08:00,17:00,30,15,15
775,52.55456,13.33526,0,52.55454,13.33541,"2|3","0|1|3|4|6","6","Deutsch-Französische Kita/Kigä City",0,37,0,06:30,17:30,06:30,17:30,06:30,17:30,06:30,17:30,06:30,17:30,142,92,50
628279,52.50843,13.23702,0,52.50875,13.23674,"3","3","1","Dickenskita",0,38,1,07:30,18:00,07:30,18:00,07:30,18:00,07:30,18:00,07:30,18:00,36,36,0
417,52.3836975,13.39965,0,52.38375,13.39981,,,,"Die Kindergärtnerei",0,39,2,07:30,17:00,07:30,17:00,07:30,17:00,07:30,15:30,07:30,17:00,25,16,9
1426,52.4795996,13.4229636,0,52.47962,13.42305,"0",,,"Die Kinkies",1,40,2,08:00,16:30,08:00,16:30,08:00,16:30,08:00,16:30,08:00,16:30,20,11,9
1102,52.5492305,13.1575556,0,52.54902,13.15761,,,,"DIE KITA der Ev.-Paul-Gerhard-Kgm.",0,41,4,07:30,16:30,07:30,16:30,07:30,16:30,07:30,16:30,07:30,16:30,30,18,12
361129,52.4939534,13.432017,0,52.49401,13.43183,"12|2",,,"Die kleine Welt",1,42,2,08:00,18:00,08:00,18:00,08:00,18:00,08:00,18:00,08:00,18:00,16,16,0
742229,52.5875378,13.3345963,1,52.57205,13.3137,,,,"Die kleinen Grünschnäbel II",0,43,1,0,0,0,0,0,0,0,0,0,0,50,null,null
510229,52.528629,13.191369,0,52.52859,13.19165,,,,"Die kleinen Piraten",0,8,1,06:00,19:00,06:00,19:00,06:00,19:00,06:00,19:00,06:00,19:00,95,62,33
130129,52.5188773,13.4505032,0,52.51885,13.45049,"15",,"5","Die schlauen Mäuschen",0,44,2,08:00,17:00,08:00,17:00,08:00,17:00,08:00,17:00,08:00,17:00,30,30,0
2874,52.53795419999999,13.5664266,1,52.52788,13.546,"3","0",,"Die Senfkörner",0,45,1,07:00,17:00,07:00,17:00,07:00,17:00,07:00,17:00,07:00,17:00,35,22,13
690229,52.517,13.29411,0,52.51697,13.29397,,,,"Die wilden 25",1,46,1,0,0,0,0,0,0,0,0,0,0,24,null,null
2742,52.5106736,13.2411376,0,52.51023,13.2438,"0|2",,,"Die wilden Westender",0,47,2,07:00,17:00,07:00,17:00,07:00,17:00,07:00,17:00,07:00,17:00,53,31,22
413129,52.5073952,13.3015288,1,52.51259,13.31175,"3","4",,"Die Zauberflöten - Kita an der Deutschen Oper",0,48,1,07:00,19:00,07:00,19:00,07:00,19:00,07:00,19:00,07:00,19:00,55,39,16
773379,52.5699225,13.4942268,0,52.56987,13.49442,,,,"Dracos Drachen Kids",0,49,1,0,0,0,0,0,0,0,0,0,0,45,null,null
1790,52.4736908,13.3352069,1,52.47882,13.33384,"2",,,"EIKITA Felix",1,50,2,08:00,16:30,08:00,16:30,08:00,16:30,08:00,16:30,08:00,16:30,17,9,8
1248,52.48396779999999,13.3402508,1,52.48752,13.35033,"6",,,"Ei-Kita Humpty Dumpty",1,51,2,08:00,17:00,08:00,17:00,08:00,17:00,08:00,17:00,08:00,17:00,24,14,10
520,52.51853,13.30759,0,52.51835,13.30786,"2","4|6",,"EiKiTa Pünktchen",1,52,2,08:00,16:00,08:00,16:00,08:00,16:00,08:00,16:00,08:00,15:00,16,12,4
1163,52.4709,13.32789,0,52.47077,13.3281,"2",,,"EKG - Bundesallee 76A",3,53,4,08:00,13:00,08:00,13:00,08:00,13:00,08:00,13:00,08:00,13:00,16,14,2
825,52.43540669999999,13.3456638,0,52.43553,13.34554,,,,"EKG - Gallwitzallee 4",3,54,4,08:00,12:00,08:00,12:00,08:00,12:00,08:00,12:00,08:00,12:00,15,15,0
1051,52.48383,13.27528,0,52.48386,13.27531,,,,"EKG - Grunewald",3,55,4,08:00,13:00,08:00,13:00,08:00,13:00,08:00,13:00,08:00,13:00,17,14,3
1112,52.42251,13.26038,0,52.4223,13.26061,,,,"EKG - Heimat 27",3,56,4,08:30,12:30,08:30,12:30,08:30,12:30,08:30,12:30,08:30,12:30,16,16,0
1052,52.4823072,13.2907862,0,52.48227,13.2908,"9|4",,,"EKG - Hohenzollerndamm 130",3,57,4,08:00,13:00,08:00,13:00,08:00,13:00,08:00,13:00,08:00,13:00,16,15,1
1156,52.5116471,13.1863726,0,52.51171,13.18618,,,,"EKG - Jaczostr. 52",3,58,4,08:00,13:00,08:00,13:00,08:00,13:00,08:00,13:00,08:00,13:00,15,15,0
742,52.45406,13.14486,0,52.45415,13.14448,,,,"EKG - Kladower Damm 369",3,59,4,08:00,13:00,08:00,13:00,08:00,13:00,08:00,13:00,08:00,13:00,15,15,0
743,52.54152,13.26722,0,52.54144,13.26742,,,,"EKG - Schuckertdamm 336-338",3,60,4,08:00,13:00,08:00,13:00,08:00,13:00,08:00,13:00,08:00,13:00,15,15,0
1103,52.5583895,13.1823915,0,52.55892,13.18225,,,,"EKG - Schwanter Weg 3",3,61,4,08:00,13:00,08:00,13:00,08:00,13:00,08:00,13:00,08:00,13:00,15,15,0
928,52.44804,13.12661,0,52.44709,13.12651,,,,"EKT -  Eichhörnchenbande",1,62,2,0,0,0,0,0,0,0,0,0,0,45,38,7
587,52.471815,13.4442401,0,52.47191,13.44419,"3","2",,"EKT -  Kleine Fische",1,63,2,08:00,17:00,08:00,17:00,08:00,17:00,08:00,17:00,08:00,17:00,24,16,8
1201,52.42079,13.48757,0,52.421,13.48795,"2",,,"EKT - Balou",1,64,2,07:00,18:00,07:00,18:00,07:00,18:00,07:00,18:00,07:00,17:30,49,39,10
733,52.5423245,13.3594442,0,52.54228,13.35941,"2","2",,"EKT - Eisbär",1,65,2,07:30,16:30,07:30,16:30,07:30,16:30,07:30,16:30,07:30,16:30,15,11,4
978,52.4813,13.44414,0,52.48119,13.44403,"2",,,"EKT - Minnie Maus Verein z.Errichtung u.Betreibung v.EKT's e.V.",1,64,2,07:00,18:00,07:00,18:00,07:00,18:00,07:00,18:00,07:00,17:30,44,42,2
2290,52.52494,13.39621,0,52.52493,13.3964,,,,"EKT - Pippi Langstrumpf",1,66,2,08:00,16:30,08:00,16:30,08:00,16:30,08:00,16:30,08:00,16:30,14,14,0
1441,52.46964,13.42492,0,52.46965,13.4249,"2",,,"EKT - Pumuckel Verein z.Errichtung u.Betreibung v.EKT's e.V.",1,64,2,07:00,18:00,07:00,18:00,07:00,18:00,07:00,18:00,07:00,17:30,53,41,12
243,52.487351,13.3967369,0,52.48732,13.39698,"10",,,"EKT - Wildblume e.V.",1,67,2,07:00,16:00,07:00,16:00,07:00,16:00,07:00,16:00,07:00,16:00,15,11,4
2502,52.4865799,13.3938448,0,52.48645,13.39379,"6|10",,"1","EKT - Wildblume e.V.",1,67,2,07:00,16:00,07:00,16:00,07:00,16:00,07:00,16:00,07:00,16:00,15,9,6
2610,52.5438875,13.4195862,0,52.54383,13.41964,"2",,,"EKT - 10 Vorne",1,68,2,08:00,17:00,08:00,17:00,08:00,17:00,08:00,17:00,08:00,17:00,26,21,5
1032,52.4821621,13.4235132,0,52.48226,13.42353,"2",,,"EKT - 1001 Nacht",1,69,1,07:00,17:00,07:00,17:00,07:00,17:00,07:00,17:00,07:00,17:00,38,29,9
1251,52.49209519999999,13.3403784,1,52.49474,13.33937,,,,"EKT - Abrakadabra",1,70,2,08:00,17:00,08:00,17:00,08:00,17:00,08:00,17:00,08:00,17:00,14,8,6
1610,52.4956904,13.4272009,1,52.50069,13.42359,"2",,,"EKT - Affentanz",1,71,2,08:00,16:30,08:00,16:30,08:00,16:30,08:00,16:30,08:00,16:30,26,16,10
1303,52.46052,13.32045,1,52.48609,13.56274,"2",,,"EKT - Ahörnchen",1,72,2,08:00,16:30,08:00,16:30,08:00,16:30,08:00,16:30,08:00,16:00,16,13,3
870,52.4665311,13.4378469,1,52.51526,13.59318,"2",,,"EKT - Ali Baba u.seine Räuber",1,73,2,0,0,0,0,0,0,0,0,0,0,54,54,0
2548,52.4661582,13.436167,1,52.51521,13.59339,"10",,,"EKT - Ali Baba und seine Räuber",1,73,2,0,0,0,0,0,0,0,0,0,0,18,18,0
334,52.52983,13.33183,1,52.44569,13.51056,,,,"EKT - ALIBABA",1,74,2,08:00,17:00,08:00,17:00,08:00,17:00,08:00,17:00,08:00,17:00,15,15,0
381,52.4893279,13.4149059,0,52.4894,13.41475,,,,"EKT - Alles Banane",1,75,2,08:00,16:30,08:00,16:30,08:00,16:30,08:00,16:30,08:00,16:30,14,14,0
2750,52.47143939999999,13.4318021,0,52.47139,13.43183,,,,"EKT - Altenbraker Kinderladen - Altenbraker Str. 10",1,76,2,07:00,17:00,07:00,17:00,07:00,17:00,07:00,17:00,07:00,17:00,30,18,12
1137,52.47887,13.34607,0,52.47872,13.34628,,,,"EKT - Amsel",1,77,2,07:00,17:30,07:00,17:30,07:00,17:30,07:00,17:30,07:00,17:30,18,14,4
1255,52.48694,13.34267,0,52.48688,13.34262,,,,"EKT - Amtomokarasachmo",1,78,2,07:30,16:30,07:30,16:30,07:30,16:30,07:30,16:30,07:30,16:30,17,17,0
768,52.5821806,13.3887692,0,52.58219,13.38896,"0",,,"EKT - Arbeitsgruppe für Montessori-Pädagogik",1,79,2,07:30,16:30,07:30,16:30,07:30,16:30,07:30,16:30,07:30,16:30,26,23,3
924,52.52981,13.31563,0,52.52952,13.3155,,,,"EKT - Arche Moabit",1,80,2,08:00,16:00,08:00,16:00,08:00,16:00,08:00,16:00,08:00,16:00,30,25,5
1809,52.4819413,13.3216638,0,52.48195,13.32163,"2",,,"EKT - Arche Noah",1,81,2,08:00,16:00,08:00,16:00,08:00,16:00,08:00,16:00,08:00,16:00,21,21,0
803,52.55122009999999,13.3890831,1,52.56567,13.50323,"16","2|6",,"EKT - Auenland",1,82,2,07:30,17:00,07:30,17:00,07:30,17:00,07:30,17:00,07:30,17:00,40,30,10
1533,52.4692851,13.4317012,0,52.46937,13.43159,,,,"EKT - Babbelgamm",1,83,2,0,0,0,0,0,0,0,0,0,0,17,17,0
1247,52.47591260000001,13.3257696,0,52.47586,13.32587,,,,"EKT - Berliner Malbüro",1,84,2,08:00,16:30,08:00,16:30,08:00,16:30,08:00,16:30,08:00,16:30,15,15,0
1312,52.4460049,13.3075956,0,52.44608,13.3078,"12|2","2|4",,"EKT - Blumenladen",1,85,2,08:00,16:00,08:00,16:00,08:00,16:00,08:00,16:00,08:00,15:00,19,14,5
2819,52.53177489999999,13.4311839,0,52.53181,13.43103,,,,"EKT - Bötzowstrolche",1,86,2,0,0,0,0,0,0,0,0,0,0,18,13,5
753,52.48087839999999,13.3628365,0,52.48094,13.36277,"2",,,"EKT - Brei nach Neun",1,87,2,08:00,17:00,08:00,17:00,08:00,17:00,08:00,17:00,08:00,17:00,18,11,7
940,52.48211509999999,13.3891911,0,52.48526,13.38694,,,,"EKT - BuDdelKiste",1,88,2,0,0,0,0,0,0,0,0,0,0,45,35,10
1912,52.4944407,13.3670403,0,52.49443,13.36714,,,,"EKT - Bülowstr.",1,89,2,08:00,17:00,08:00,17:00,08:00,17:00,08:00,17:00,08:00,17:00,15,10,5
1798,52.4830785,13.3212744,0,52.48295,13.32128,"2",,,"EKT - Chiquitita",1,90,2,07:30,17:00,07:30,17:00,07:30,17:00,07:30,17:00,07:30,17:00,40,23,17
555,52.52402530000001,13.3018842,0,52.5239,13.30223,,"4",,"EKT - CIP City-Initiative f. Eltern- ",1,91,2,07:00,16:30,07:00,16:30,07:00,16:30,07:00,16:30,07:00,16:30,36,21,15
696,52.5026828,13.3615691,0,52.50275,13.36147,"2","3","6","EKT - Cocorico et Co",1,92,2,07:45,17:00,07:45,17:00,07:45,17:00,07:45,17:00,07:45,17:00,19,19,0
1633,52.4874555,13.3936478,0,52.48733,13.39362,,,,"EKT - Combo",1,93,2,0,0,0,0,0,0,0,0,0,0,17,12,5
307129,52.53087,13.42302,0,52.53082,13.42294,,,,"EKT - Der Hummer aus Toronto",1,94,1,08:00,17:00,08:00,17:00,08:00,17:00,08:00,17:00,08:00,17:00,35,23,12
840,52.5319081,13.3483383,1,52.5326,13.34093,"10|2",,,"EKT - Der Kick - Initiative im Kiez",1,95,2,08:00,17:00,08:00,17:00,08:00,17:00,08:00,17:00,08:00,17:00,16,8,8
932,52.4942135,13.418661,0,52.49414,13.41887,"0","0|1|3|4|6","3","EKT - Der kleine Horrorladen",1,96,2,07:30,16:30,07:30,16:30,07:30,16:30,07:30,16:30,07:30,16:30,15,11,4
1504,52.56207999999999,13.36083,0,52.56201,13.36058,,,,"EKT - Die Entdecker (1)",1,97,2,07:00,17:00,07:00,17:00,07:00,17:00,07:00,17:00,07:00,17:00,23,23,0
100001,52.56232,13.35771,0,52.56217,13.35767,,,,"EKT - Die Entdecker (2)",1,97,2,07:00,17:00,07:00,17:00,07:00,17:00,07:00,17:00,07:00,17:00,15,15,0
578229,52.56232,13.35771,0,52.56217,13.35767,,,,"EKT - Die Entdecker (III)",1,97,2,07:00,17:00,07:00,17:00,07:00,17:00,07:00,17:00,07:00,17:00,14,14,0
1507,52.6113691,13.245852,0,52.6106,13.24744,"2","6",,"EKT - Die Igelkinder",1,98,2,07:00,16:30,07:00,16:30,07:00,16:30,07:00,16:30,07:00,16:00,24,14,10
1205,52.55161,13.3612,0,52.55185,13.36124,"2","1|3|4",,"EKT - Die kleinen Chaoten",1,99,2,07:30,16:30,07:30,16:30,07:30,16:30,07:30,16:30,07:30,16:30,23,21,2
1812,52.48014999999999,13.32128,0,52.48003,13.3214,,,,"EKT - Die Lauser",1,100,2,0,0,0,0,0,0,0,0,0,0,16,16,0
1913,52.481174,13.3593051,0,52.48118,13.35923,,"2",,"EKT - Die Meckerbeine",1,101,2,08:00,16:30,08:00,16:30,08:00,16:30,08:00,16:30,08:00,16:30,13,13,0
2518,52.5651173,13.3898211,0,52.5651,13.39004,,,,"EKT - Die Ministerne",1,102,2,06:30,16:30,06:30,16:30,06:30,16:30,06:30,16:30,06:30,16:30,16,16,0
2485,52.58759999999999,13.40231,0,52.5876,13.40265,,,,"EKT - Die Pankis",1,103,1,07:00,17:00,07:00,17:00,07:00,17:00,07:00,17:00,07:00,17:00,30,19,11
1151,52.49028999999999,13.39149,0,52.49049,13.39154,,,,"EKT - Die Panzerknacker",1,104,2,0,0,0,0,0,0,0,0,0,0,34,34,0
1761,52.52616,13.1803781,0,52.52611,13.18052,,,,"EKT - Die Seeburg",1,105,2,0,0,0,0,0,0,0,0,0,0,16,11,5
941,52.427903,13.4149763,1,52.44132,13.42468,"2","1|4",,"EKT - Dinglhopper",1,106,2,07:00,17:00,07:00,17:00,07:00,17:00,07:00,17:00,07:00,17:00,40,30,10
1804,52.4880846,13.3213985,0,52.48816,13.32151,"9|4|2","0|1|3|4|6",,"EKT - Donnerbagger",1,107,2,07:30,16:30,07:30,16:30,07:30,16:30,07:30,16:30,07:30,16:30,12,7,5
1559,52.55365,13.36527,0,52.55358,13.36538,,,,"EKT - Doppelpünktchen",1,108,2,08:00,17:00,08:00,16:00,08:00,17:00,08:00,17:00,08:00,17:00,17,12,5
339,52.5473325,13.2050502,0,52.54738,13.20514,,,,"EKT - Dreiecke und Kreise",1,109,2,07:30,16:30,07:30,16:30,07:30,16:30,07:30,16:30,07:30,16:30,24,21,3
914,52.50119,13.30247,0,52.50102,13.30228,,,,"EKT - Droysen-Mäuse",1,110,2,07:30,17:00,07:30,17:00,07:30,17:00,07:30,17:00,07:30,16:30,81,54,27
866,52.5176768,13.2943687,0,52.51768,13.29431,,,,"EKT - Drunter und Drüber",1,111,2,08:00,16:00,08:00,16:00,08:00,16:00,08:00,16:00,08:00,16:00,14,14,0
2327,52.5319081,13.3483383,1,52.52752,13.34299,"0",,,"EKT - Drunter und Drüber",1,112,2,08:00,17:00,08:00,17:00,08:00,17:00,08:00,17:00,08:00,17:00,19,13,6
394,52.50386,13.2626811,0,52.50206,13.26324,,,,"EKT - Eichhörnchen",1,113,2,07:45,16:00,07:45,16:00,07:45,16:00,07:45,16:00,07:45,16:00,18,13,5
655,52.4958389,13.266142,0,52.49581,13.26618,,,,"EKT - Eichkatzweg",1,114,2,0,0,0,0,0,0,0,0,0,0,13,13,0
885,52.48871,13.4269,0,52.48882,13.42688,,,,"EKT - Einstürzende Bauklötze",1,115,2,0,0,0,0,0,0,0,0,0,0,15,15,0
1508,52.64189,13.2967,0,52.64185,13.29672,,,,"EKT - Ententeich",1,116,2,0,0,0,0,0,0,0,0,0,0,16,14,2
124,52.5358994,13.4097539,0,52.53581,13.4099,"2",,,"EKT - Erdnuckel",1,117,2,08:00,17:00,08:00,17:00,08:00,17:00,08:00,17:00,08:00,17:00,19,18,1
1588,52.4976709,13.41298,0,52.49759,13.41303,,,,"EKT - Fajam",1,118,2,0,0,0,0,0,0,0,0,0,0,0,0,0
1571,52.4961081,13.3290488,1,52.48509,13.59282,,,,"EKT - Finowkids",1,119,2,08:00,17:30,08:00,17:30,08:00,17:30,08:00,17:30,08:00,17:30,22,15,7
1707,52.50518,13.29927,0,52.50513,13.29948,,,,"EKT - Firlefanz",1,120,2,08:30,16:00,08:30,16:00,08:30,16:00,08:30,16:00,08:30,16:00,17,15,2
412,52.466,13.3198701,0,52.46593,13.31982,"0",,,"EKT - Fliegenpilz",1,121,2,08:00,17:00,08:00,17:00,08:00,17:00,08:00,17:00,08:00,17:00,16,16,0
656,52.50492,13.29504,0,52.505,13.29498,,,,"EKT - Flitzpiepen",1,122,2,0,0,0,0,0,0,0,0,0,0,19,13,6
2373,52.5540854,13.3919163,0,52.55417,13.39181,"0","0|1|3|4|6|5",,"EKT - Flohzirkus Wedding",1,123,2,0,0,0,0,0,0,0,0,0,0,18,14,4
1254,52.4903384,13.3461955,0,52.49018,13.34622,"0",,,"EKT - Frechdachs",1,124,2,0,0,0,0,0,0,0,0,0,0,16,10,6
2316,52.52171999999999,13.33556,0,52.52167,13.3357,"2",,,"EKT - Frecher Spatz",1,125,2,0,0,0,0,0,0,0,0,0,0,20,20,0
341,52.4664133,13.3402156,1,52.51359,13.62376,"2",,,"EKT - Friedenauer Elterninitiative",1,126,2,08:30,16:30,08:30,16:30,08:30,16:30,08:30,16:30,08:30,16:30,20,20,0
993,52.52611,13.31016,0,52.52591,13.31027,"3","3|4",,"EKT - Gesellschaft f.intern.Kultur- u.Bildungsarbeit",1,127,2,07:15,16:15,07:30,17:00,07:30,17:00,07:30,17:00,07:15,17:00,62,39,23
2752,52.52280099999999,13.452673,0,52.52271,13.45261,"17|3","0|1|2|3|4|6","1","EKT - Grüne Wolke",1,128,2,08:00,17:00,08:00,17:00,08:00,17:00,08:00,17:00,08:00,17:00,19,14,5
1620,52.48699999999999,13.39129,0,52.48692,13.3914,"2",,,"EKT - Kalle Kirschkern e.V.",1,129,1,08:00,16:00,08:00,16:00,08:00,16:00,08:00,16:00,08:00,16:00,16,11,5
723,52.517858,13.3025701,0,52.51779,13.30252,"2","0|1|4|6",,"EKT - Karamell",1,130,2,0,0,0,0,0,0,0,0,0,0,23,18,5
1698,52.51335779999999,13.2930138,0,52.51346,13.29302,"2","0|1|3|4|6",,"EKT - Kartoffelladen",1,131,2,07:30,16:30,07:30,16:30,07:30,16:30,07:30,16:30,07:30,16:30,18,13,5
1437,52.41703,13.40326,0,52.417,13.40333,,,,"EKT - Kasperle",1,132,2,07:30,16:30,07:30,16:30,07:30,16:30,07:30,16:30,07:30,15:30,25,15,10
549,52.45852259999999,13.3314898,0,52.45848,13.33146,"2",,,"EKT - Kasymir",1,133,2,08:00,16:30,08:00,16:30,08:00,16:30,08:00,16:30,08:00,16:00,21,15,6
902,52.4870704,13.3766466,0,52.48707,13.37642,,,,"EKT - Katzbach-Piraten",1,134,2,07:30,16:00,07:30,16:00,07:30,16:00,07:30,16:00,07:30,16:00,17,15,2
662,52.4876197,13.3204997,0,52.48781,13.3207,"2",,,"EKT - Kiga für musische und sprachliche Erziehung",1,135,2,07:30,16:00,07:30,16:00,07:30,16:00,07:30,16:00,07:30,16:00,33,27,6
2372,52.5504622,13.3808418,0,52.55047,13.38075,"2",,,"EKT - Kila Spatzenkinder",1,136,2,07:30,17:00,07:30,17:00,07:30,17:00,07:30,17:00,07:30,17:00,18,18,0
1609,52.4987647,13.4366332,0,52.49873,13.43653,"11|2","2|3","0|7|8|3","EKT - Kinder einer Erde",1,137,2,08:30,17:30,08:30,17:30,08:30,17:30,08:30,17:30,08:30,17:30,28,14,14
2445,52.5455109,13.4072944,1,52.53632,13.40667,"18|10|0|2",,,"EKT - Kinder Sorpresa",1,138,2,08:00,17:00,08:00,17:00,08:00,17:00,08:00,17:00,08:00,17:00,37,37,0
346,52.51385,13.2947,0,52.51373,13.29462,"2","0|1|2|3|4|6|7|5","3","EKT - Kinderbegegnungsstätte Atatürk",1,139,2,08:00,17:30,08:00,17:30,08:00,17:30,08:00,17:30,08:00,17:30,26,18,8
191,52.51300879999999,13.4626085,1,52.45883,13.53431,,,,"EKT - Kinderbüro",1,140,2,0,0,0,0,0,0,0,0,0,0,20,20,0
1200,52.4916782,13.4332984,0,52.49167,13.43327,,,,"EKT - Kinderfan",1,141,2,08:00,17:00,08:00,17:00,08:00,17:00,08:00,17:00,08:00,17:00,19,19,0
657,52.52003999999999,13.30217,0,52.52008,13.30219,,,,"EKT - Kindergarten am Schloß Charlottenburg",1,142,2,06:30,16:30,06:30,16:30,06:30,16:30,06:30,16:30,06:30,16:30,25,19,6
1190,52.52006000000001,13.30155,0,52.5201,13.30175,,,,"EKT - Kindergarten am Schloß Charlottenburg",1,142,2,06:30,16:30,06:30,16:30,06:30,16:30,06:30,16:30,06:30,16:30,22,15,7
1544,52.52057,13.30166,0,52.52047,13.30172,,,,"EKT - Kindergarten am Schloß Charlottenburg",1,142,2,06:45,16:45,06:45,16:45,06:45,16:45,06:45,16:45,06:45,16:45,50,40,10
1929,52.48385,13.36303,0,52.48373,13.36296,,,,"EKT - Kindergruppe Bunte Knospe",1,143,2,07:00,17:00,07:00,17:00,07:00,17:00,07:00,17:00,07:00,17:00,16,16,0
1523,52.48733,13.27144,0,52.48717,13.27113,"2",,,"EKT - Kindergruppe Hasensprung",1,144,2,08:00,16:00,08:00,16:00,08:00,16:00,08:00,16:00,08:00,16:00,17,14,3
1677,52.51085,13.28355,0,52.51098,13.28358,,,,"EKT - Kindergruppe Lassymoss",1,145,2,08:00,17:00,08:00,17:00,08:00,17:00,08:00,17:00,08:00,16:00,16,12,4
1800,52.4720764,13.3097888,0,52.47209,13.30981,"2","4",,"EKT - Kinderhaus Binger Straße",1,146,2,07:30,16:30,07:30,16:30,07:30,16:30,07:30,16:30,07:30,16:30,40,40,0
1757,52.547525,13.2050449,1,52.60917,13.29891,"2",,,"EKT - Kinderhaus Gruberzeile",1,147,2,07:00,17:00,07:00,17:00,07:00,17:00,07:00,17:00,07:00,17:00,20,15,5
1861,52.41338,13.26096,0,52.41331,13.26096,"12",,,"EKT - Kinderhaus Schönow",1,148,2,07:30,15:30,07:30,15:30,07:30,15:30,07:30,15:30,07:30,15:30,18,15,3
812,52.4956904,13.4272009,1,52.50306,13.42231,"2",,,"EKT - Kinderhaus Waldemar Elterninitiative",1,149,2,08:00,17:00,08:00,17:00,08:00,17:00,08:00,17:00,08:00,17:00,86,86,0
2387,52.54893999999999,13.37186,1,52.43769,13.68452,,,,"EKT - Kinderhütte Wiesenstraße",1,150,2,06:00,18:00,06:00,18:00,06:00,18:00,06:00,18:00,06:00,18:00,21,21,0
1678,52.504742,13.2974562,0,52.5046,13.29758,,,,"EKT - Kinderladen - was sonst",1,151,2,08:00,17:00,08:00,17:00,08:00,17:00,08:00,17:00,08:00,17:00,22,22,0
1684,52.5087124,13.3137619,1,52.50906,13.31849,,,,"EKT - Kinderladen 1 Goethestraße (EG rechts)",1,152,2,08:00,17:00,08:00,17:00,08:00,17:00,08:00,17:00,08:00,17:00,11,11,0
2334,52.5272806,13.3513218,0,52.52733,13.35134,"2","6",,"EKT - Kinderladen Badehaus",1,153,2,08:00,17:00,08:00,17:00,08:00,17:00,08:00,17:00,08:00,16:00,26,17,9
1622,52.49976299999999,13.4243623,0,52.49974,13.42438,,,,"EKT - Kinderladen Bande",1,154,2,0,0,0,0,0,0,0,0,0,0,14,14,0
2695,52.5087124,13.3137619,1,52.50906,13.31849,,,,"EKT - Kinderladen Goethestraße (EG links)",1,152,2,08:00,17:00,08:00,17:00,08:00,17:00,08:00,17:00,08:00,17:00,15,15,0
650,52.49256,13.38645,0,52.49251,13.38628,"0",,,"EKT - Kinderladen Luftabong",1,155,2,0,0,0,0,0,0,0,0,0,0,18,18,0
529,52.46594,13.43748,1,52.51439,13.59701,,,,"EKT - Kinderladen Pimpinella",1,156,2,08:00,17:00,08:00,17:00,08:00,17:00,08:00,17:00,08:00,17:00,28,16,12
348,52.55484999999999,13.4592,0,52.55452,13.46034,"2","6",,"EKT - Kinderladen Villa Honighut",1,157,2,07:00,17:00,07:00,17:00,07:00,17:00,07:00,17:00,07:00,17:00,41,33,8
1319,52.461669,13.3442882,0,52.46165,13.34424,,,,"EKT - Kinderladen Zweitausendfüßler",1,158,2,07:30,16:30,07:30,16:30,07:30,16:30,07:30,16:30,07:30,16:30,16,13,3
583,52.44568719999999,13.3681759,1,52.50354,13.34714,,,,"EKT - Kinderladeninitiative Tempelhof",1,159,2,08:00,16:00,08:00,16:00,08:00,16:00,08:00,16:00,08:00,16:00,18,18,0
2669,52.40885,13.54128,0,52.40883,13.54146,"19",,,"EKT - Kinderland Biene Maja",1,160,2,07:00,17:00,07:00,17:00,07:00,17:00,07:00,17:00,07:00,17:00,23,17,6
100016,52.5042103,13.4809905,0,52.50403,13.48093,,,,"EKT  Kinderleben - Kind erleben",1,161,2,07:30,17:00,07:30,17:00,07:30,17:00,07:30,17:00,07:30,17:00,20,15,5
1351,52.4581583,13.369913,0,52.45814,13.36986,"0|2","2|4",,"EKT - Kinderspielkreis Alboinplatz",1,162,2,08:00,16:00,08:00,16:00,08:00,16:00,08:00,16:00,08:00,16:00,17,14,3
1598,52.49604,13.4001867,0,52.49614,13.40011,"13|2","0|1|2|3|4|6","8|3","EKT - Kindervilla Waldemar",1,163,2,07:00,17:00,07:00,17:00,07:00,17:00,07:00,17:00,07:00,17:00,87,66,21
1817,52.4748915,13.3041008,0,52.47483,13.30416,"2",,,"EKT - Kissi",1,164,2,07:30,16:30,07:30,16:30,07:30,16:30,07:30,16:30,07:30,16:30,38,28,10
1431,52.47515,13.42336,0,52.47498,13.42314,"2",,,"EKT - Kita Karlsgartenstraße",1,165,2,0,0,0,0,0,0,0,0,0,0,16,0,16
2628,52.5319894,13.4364449,0,52.53198,13.43648,,,,"EKT - Kitaträumer",1,166,2,0,0,0,0,0,0,0,0,0,0,25,25,0
1348,52.3942,13.42091,0,52.39418,13.42094,,,,"EKT - Kita-Verein Lichtenrade Ost",1,167,2,0,0,0,0,0,0,0,0,0,0,null,null,0
416,52.39465999999999,13.42231,0,52.39461,13.42221,"2",,,"EKT - Kita-Verein Lichtenrade Ost - Groß-Ziethener-Str. 96",1,167,2,06:30,16:30,06:30,16:30,06:30,16:30,06:30,16:30,06:30,16:30,24,15,9
1350,52.39436,13.41897,0,52.39432,13.41897,"2",,,"EKT - Kita-Verein Lichtenrade Ost - Nahariyastr. 45",1,167,2,06:30,16:30,06:30,16:30,06:30,16:30,06:30,16:30,06:30,16:30,30,24,6
1560,52.55967,13.38449,0,52.55937,13.38434,,,,"EKT - Klapperkiste",1,168,2,07:30,16:30,07:30,16:30,07:30,16:30,07:30,16:30,07:30,16:30,19,13,6
1631,52.4853765,13.3989037,1,52.49006,13.39004,"2",,,"EKT - Klara Kirschkern e.V.",1,129,1,08:00,16:00,08:00,16:00,08:00,16:00,08:00,16:00,08:00,16:00,17,12,5
307,52.482876,13.4231835,0,52.48285,13.42335,"16",,,"EKT - Kleine Erdenwesen",1,169,2,08:00,16:30,08:00,16:30,08:00,16:30,08:00,16:30,08:00,16:00,17,11,6
3005,52.52594999999999,13.45111,0,52.52588,13.45148,,,,"EKT - Kleine Fische",1,170,2,08:00,17:00,08:00,16:30,08:00,16:30,08:00,17:00,08:00,16:30,19,11,8
2504,52.37676339999999,13.6475409,0,52.37616,13.6478,,,,"EKT - Kleine Fische-ganz groß",1,171,2,07:00,17:00,07:00,17:00,07:00,17:00,07:00,17:00,07:00,17:00,27,19,8
1796,52.4819719,13.318678,0,52.48198,13.31885,"9|1",,,"EKT - Kleine Panther",1,172,2,07:45,16:30,07:45,16:30,07:45,16:30,07:45,16:30,07:45,16:30,14,10,4
2824,52.54645,13.45263,0,52.54639,13.45264,"2",,,"EKT - Kleine Riesen - Große Zwerge",1,173,2,07:30,16:30,07:30,16:30,07:30,16:30,07:30,16:30,07:30,16:30,13,9,4
923,52.53026,13.34458,0,52.53017,13.34474,"2",,,"EKT - Kleiner Frosch/Türkischer Elternverein Bln-Brbg",1,174,2,07:30,16:30,07:30,16:30,07:30,16:30,07:30,16:30,07:30,16:30,46,34,12
981,52.47432,13.42441,0,52.47421,13.42472,"2",,,"EKT - Knallerbsen/Ecke Okerstr. 10",1,175,2,07:00,17:00,07:00,17:00,07:00,17:00,07:00,17:00,07:00,17:00,62,37,25
2690,52.49484,13.41837,0,52.4947,13.41883,"0",,,"EKT - Knatterbande",1,176,2,08:00,17:00,08:00,17:00,08:00,17:00,08:00,17:00,08:00,17:00,17,13,4
1591,52.494177,13.4177944,0,52.4941,13.41787,"0",,,"EKT - Knatterpampe",1,177,2,08:00,17:00,08:00,17:00,08:00,17:00,08:00,17:00,08:00,17:00,16,16,0
304,52.50118029999999,13.3380778,1,52.49669,13.33959,"2",,,"EKT - Knuddelmuddel",1,178,2,0,0,0,0,0,0,0,0,0,0,19,19,0
1150,52.4884936,13.419504,1,52.46116,13.44489,,,,"EKT - Knulp",1,179,2,0,0,0,0,0,0,0,0,0,0,20,20,0
292,52.617172,13.3392516,0,52.61708,13.33934,"16",,,"EKT - Knusperhäuschen",1,180,2,0,0,0,0,0,0,0,0,0,0,20,15,5
2447,52.5309168,13.4128944,0,52.53102,13.41306,"16",,,"EKT - Krausnick-Eck",1,181,2,0,0,0,0,0,0,0,0,0,0,17,12,5
578,52.4698688,13.3220081,0,52.47003,13.32108,"2",,,"EKT - Kraut und Rüben",1,182,2,08:00,16:00,08:00,16:00,08:00,16:00,08:00,16:00,08:00,16:00,15,12,3
1314,52.46464,13.33132,0,52.46481,13.33156,,,,"EKT - Krikel Krakel",1,183,2,0,0,0,0,0,0,0,0,0,0,14,14,0
907,52.487607,13.3967839,0,52.48761,13.39661,,,,"EKT - Krötenpfuhl",1,184,2,0,0,0,0,0,0,0,0,0,0,18,18,0
1752,52.52562289999999,13.1979489,0,52.52565,13.19799,,,,"EKT - Krowelstr.",1,185,2,07:30,16:00,07:30,16:00,07:30,16:00,07:30,16:00,07:30,15:00,15,11,4
1614,52.49027,13.37984,0,52.49025,13.37958,"2",,,"EKT - Krümelmonster e.V.",1,186,2,08:00,16:00,08:00,16:00,08:00,16:00,08:00,16:00,08:00,16:00,27,27,0
674,52.4594,13.34211,0,52.45939,13.34216,,,,"EKT - Kulleberga",1,187,2,07:30,16:30,07:30,16:30,07:30,16:30,07:30,16:30,07:30,16:30,15,9,6
1000,52.5097895,13.3007372,1,52.41008,13.39692,,,,"EKT - Kulturküken",1,188,2,0,0,0,0,0,0,0,0,0,0,25,15,10
2491,52.49216000000001,13.38408,0,52.49217,13.38411,,,,"EKT - Kulturschlüssel",1,189,2,08:00,17:00,08:00,17:00,08:00,17:00,08:00,17:00,08:00,17:00,23,18,5
2576,52.49553,13.4297,0,52.49548,13.42983,,,,"EKT - Kunterbunt",1,190,2,08:00,17:00,08:00,17:00,08:00,17:00,08:00,17:00,08:00,17:00,30,28,2
1611,52.4956904,13.4272009,1,52.50082,13.42368,"2",,,"EKT - Langer Rüssel",1,191,2,0,0,0,0,0,0,0,0,0,0,16,16,0
1309,52.4360256,13.3494879,0,52.43603,13.34962,,,,"EKT - Lankwitzer Spielkiste",1,192,2,07:15,16:15,07:15,16:15,07:15,16:15,07:15,16:15,07:15,16:15,30,null,null
2712,52.5122225,13.2916114,0,52.51222,13.29151,,,,"EKT - Las Abejitas",1,193,2,07:30,18:00,07:30,18:00,07:30,18:00,07:30,18:00,07:30,18:00,15,15,0
1617,52.5021426,13.4296867,0,52.50201,13.4296,"2","2|3",,"EKT - Leierkasten",1,194,2,08:00,17:00,08:00,17:00,08:00,17:00,08:00,17:00,08:00,17:00,19,13,6
1361,52.40869739999999,13.402909,0,52.40864,13.40286,"0","2",,"EKT - Lichtenrader Dreckspatzen",1,195,2,07:30,16:30,07:30,16:30,07:30,16:30,07:30,16:30,07:30,16:00,34,17,17
2670,52.5114746,13.4699408,0,52.51146,13.46991,"2",,,"EKT - Lieblingsplatz",1,196,2,0,0,0,0,0,0,0,0,0,0,26,24,2
1925,52.4829036,13.360531,0,52.48296,13.36049,,,,"EKT - Lilo Leopard",1,197,2,07:30,16:30,07:30,16:30,07:30,16:30,07:30,16:30,07:30,16:30,13,6,7
2536,52.486089,13.4386002,0,52.48607,13.43867,"3","3","6","EKT - Loupiot",1,198,2,07:30,16:30,07:30,16:30,07:30,16:30,07:30,16:30,07:30,16:30,22,12,10
1635,52.500873,13.4363776,0,52.49737,13.44452,"2",,,"EKT - Löwenhöhle",1,199,2,07:30,17:00,07:30,17:00,07:30,17:00,07:30,17:00,07:30,17:00,22,13,9
2981,52.50839999999999,13.45543,0,52.50796,13.45552,,,,"EKT - LUNA",1,200,2,08:00,17:00,08:00,17:00,08:00,17:00,08:00,17:00,08:00,17:00,18,15,3
811,52.4889508,13.3745578,0,52.48883,13.37477,"2",,,"EKT - Macht nix",1,201,2,08:00,16:00,08:00,16:00,08:00,16:00,08:00,16:00,08:00,16:00,12,0,12
2582,52.48842,13.3752,0,52.48852,13.37451,"2",,,"EKT - Macht nix",1,201,2,08:00,16:00,08:00,16:00,08:00,16:00,08:00,16:00,08:00,16:00,16,14,2
1553,52.474957,13.4258424,0,52.47492,13.42587,,"2",,"EKT - Mafalda",1,202,2,07:30,16:30,07:30,16:30,07:30,16:30,07:30,16:30,07:30,16:30,27,17,10
818,52.5155462,13.3182951,0,52.5155,13.31857,"0","0|2|4",,"EKT - Maikäfer",1,203,2,07:00,16:00,07:00,16:00,07:00,16:00,07:00,16:00,07:00,16:00,14,13,1
1802,52.4880533,13.3174385,0,52.48808,13.31743,"2","0|4",,"EKT - Maikäfer (Gartenhaus)",1,204,2,07:30,16:00,07:30,16:00,07:30,16:00,07:30,16:00,07:30,16:00,21,16,5
2325,52.53434,13.34942,0,52.53428,13.34965,"0","0|1|2|3|4|6","2","EKT - Maluch",1,205,2,07:30,16:30,07:30,16:30,07:30,16:30,07:30,16:30,07:30,16:00,30,20,10
654,52.5058259,13.2834692,0,52.50586,13.28352,,,,"EKT - Mappagei",1,206,2,07:30,16:30,07:30,16:30,07:30,16:30,07:30,16:30,07:30,16:30,15,15,0
676,52.4582,13.37454,0,52.45818,13.37452,"2",,,"EKT - Märchenwald/Ver.z.Errichtg u.Betreibg v.EKTs e.V.",1,64,2,07:00,18:00,07:00,18:00,07:00,18:00,07:00,18:00,07:00,17:30,56,43,13
1558,52.54779000000001,13.39435,0,52.54763,13.39438,"0",,,"EKT - Mauerspechte",1,207,2,08:00,17:00,08:00,17:00,08:00,17:00,08:00,17:00,08:00,17:00,16,16,0
1434,52.42767,13.46686,0,52.42747,13.46684,"2",,,"EKT - Mieterinitiative HWS-Gropiusstadt",1,208,2,08:00,17:00,08:00,17:00,08:00,17:00,08:00,17:00,08:00,17:00,28,23,5
576,52.4710481,13.3283466,0,52.47103,13.32809,"2",,,"EKT - Milchzahn",1,209,2,08:00,16:00,08:00,16:00,08:00,16:00,08:00,16:00,08:00,15:00,18,16,2
1030,52.47420899999999,13.4512324,0,52.47416,13.45121,"2","1|2|4",,"EKT - Minihausen",1,210,2,07:00,17:00,07:00,17:00,07:00,17:00,07:00,17:00,07:00,17:00,33,18,15
2590,52.5462848,13.4210513,0,52.54633,13.42079,"2",,,"EKT - Mischpoke",1,211,2,08:00,17:00,08:00,17:00,08:00,17:00,08:00,17:00,08:00,17:00,30,30,0
987,52.49371,13.41724,0,52.49392,13.41749,"9|4",,,"EKT - Mondlicht I",0,212,1,07:00,16:00,07:00,16:00,07:00,16:00,07:00,16:00,07:00,16:00,51,51,0
1578,52.49375,13.41758,0,52.49386,13.41771,"9|4|1",,,"EKT - Mondlicht II",0,212,1,07:00,16:00,07:00,16:00,07:00,16:00,07:00,16:00,07:00,16:00,15,15,0
1584,52.4909676,13.4214127,0,52.49087,13.42137,"7|4|1",,,"EKT - Mondsichel",0,212,1,07:00,16:00,07:00,16:00,07:00,16:00,07:00,16:00,07:00,16:00,32,32,0
569,52.4602375,13.2749071,0,52.45958,13.27512,"0","0|1|2|3|4|6|5",,"EKT - Montessori-Gemeinschaftshaus",1,213,2,08:00,16:30,08:00,16:30,08:00,16:30,08:00,16:30,08:00,16:30,23,23,0
1551,52.48771439999999,13.3743045,0,52.48766,13.3743,,,,"EKT - Monumentenbande",1,214,2,08:00,17:00,08:00,17:00,08:00,17:00,08:00,17:00,08:00,17:00,14,14,0
2664,52.45488,13.62862,0,52.45479,13.6287,"13|0","2|4",,"EKT - Müggelräuber",1,215,2,07:30,17:00,07:30,17:00,07:30,17:00,07:30,17:00,07:30,17:00,42,30,12
384,52.49739,13.44671,0,52.49741,13.44663,"20",,,"EKT - Munkelrübe",1,216,2,0,0,0,0,0,0,0,0,0,0,18,18,0
1921,52.49234999999999,13.36639,0,52.49233,13.36648,,,,"EKT - Murkel",1,217,2,08:30,16:00,08:30,16:00,08:30,16:00,08:30,16:00,08:30,16:00,15,15,0
762,52.49295,13.42742,0,52.49291,13.42784,,,,"EKT - Naseweis",1,218,2,07:30,16:30,07:30,16:30,07:30,16:30,07:30,16:30,07:30,16:30,20,20,0
967,52.4853765,13.3989037,1,52.50035,13.38606,"0","2",,"EKT - Nasreddin",1,219,2,07:30,16:45,07:30,16:30,07:30,16:40,07:30,16:40,07:30,16:30,22,11,11
534,52.50168,13.43399,0,52.5014,13.43367,,,,"EKT - Nestwärme",1,220,2,0,0,0,0,0,0,0,0,0,0,69,48,21
739,52.488514,13.4195066,1,52.46129,13.44422,"9|4|1",,,"EKT - Neumond",0,212,1,07:00,16:00,07:00,16:00,07:00,16:00,07:00,16:00,07:00,16:00,30,30,0
308,52.4787936,13.4227979,0,52.47875,13.4228,"4|0",,,"EKT - Neuzeitlich-christliche Initiative",0,221,2,07:30,17:30,07:30,17:30,07:30,17:30,07:30,17:30,07:30,17:30,35,23,12
2498,52.53661,13.42604,0,52.53633,13.4258,"2","0",,"EKT - Obst und Gemüse",1,222,2,08:00,17:00,08:00,17:00,08:00,17:00,08:00,17:00,08:00,17:00,30,25,5
1531,52.548811,13.2100582,0,52.54876,13.21003,"2",,,"EKT - Oscar",1,223,2,06:00,18:00,06:00,18:00,06:00,18:00,06:00,18:00,06:00,18:00,17,17,0
728,52.504358,13.3681292,0,52.50428,13.3682,,,,"EKT - Pädagogisches Zentrum Bissingzeile",1,224,2,0,0,0,0,0,0,0,0,0,0,39,39,0
841,52.5285243,13.3453698,1,52.5282,13.63473,"12",,,"EKT - Panther, Tiger und Co.",1,225,2,07:00,16:00,07:00,16:00,07:00,16:00,07:00,16:00,07:00,16:00,25,20,5
1316,52.4554141,13.3230311,0,52.45531,13.32328,,,,"EKT - Papalagi",1,226,2,08:00,17:00,08:00,17:00,08:00,17:00,08:00,17:00,08:00,17:00,25,17,8
1786,52.4801861,13.3223836,1,52.47972,13.42803,"2",,,"EKT - Paul und Klärchen",1,227,2,08:00,16:30,08:00,16:30,08:00,16:30,08:00,16:30,08:00,16:00,15,8,7
2326,52.5277111,13.351492,0,52.52768,13.35171,"0",,,"EKT - Perle",1,228,2,08:00,17:00,08:00,17:00,08:00,17:00,08:00,17:00,08:00,17:00,21,21,0
1576,52.39297,13.41034,0,52.39285,13.41018,,,,"EKT - Pillepoppen",1,229,2,07:00,16:30,07:00,16:30,07:00,16:30,07:00,16:30,07:00,16:30,53,39,14
2629,52.5223938,13.4517148,0,52.52247,13.45167,"2","0|1|4|6",,"EKT - pinepako",1,230,2,08:00,17:00,08:00,17:00,08:00,17:00,08:00,17:00,08:00,17:00,18,12,6
2617,52.52468959999999,13.4527963,0,52.52465,13.45272,,,,"EKT - Pipilota",1,231,2,0,0,0,0,0,0,0,0,0,0,30,18,12
1581,52.4934093,13.4197252,0,52.49333,13.41974,,,,"EKT - Pittiplatsch",1,232,2,08:00,17:00,08:00,17:00,08:00,17:00,08:00,17:00,08:00,16:00,21,16,5
1627,52.49542,13.44473,0,52.4953,13.44488,,,,"EKT - Plutonia",1,233,2,0,0,0,0,0,0,0,0,0,0,40,27,13
1318,52.45009,13.33376,0,52.45002,13.33381,"2","0|1|4",,"EKT - Pusteblume",1,234,2,07:30,16:30,07:30,16:30,07:30,16:30,07:30,16:30,07:30,16:30,22,19,3
2292,52.53874,13.40855,0,52.53878,13.40854,"2",,,"EKT - Quasselstrippe",1,235,2,07:00,17:00,07:00,17:00,07:00,17:00,07:00,17:00,07:00,17:00,24,24,0
1222,52.469868,13.3221033,0,52.47003,13.32231,,,,"EKT - Rappelschlößchen",1,236,2,08:00,16:30,08:00,16:30,08:00,16:30,08:00,16:30,08:00,16:00,21,17,4
919,52.480543,13.4525932,1,52.4884,13.42713,,,,"EKT - Rasselbande",1,237,2,08:00,17:00,08:00,17:00,08:00,17:00,08:00,17:00,08:00,17:00,16,16,0
2624,52.5654135,13.4043031,0,52.56519,13.40407,,,,"EKT - Ratzefatze",1,238,2,09:00,17:00,08:00,17:00,08:00,17:00,08:00,17:00,08:00,16:00,21,20,1
382,52.4956329,13.4267796,0,52.49569,13.42695,,,,"EKT - Regenbogenfabrik, Block 109",1,239,1,08:00,17:00,08:00,17:00,08:00,17:00,08:00,17:00,08:00,17:00,15,15,0
2817,52.5280959,13.2996009,0,52.52808,13.29962,"2","7",,"EKT - Regenbogen-Kidz",1,240,2,08:00,16:00,08:00,16:00,08:00,16:00,08:00,16:00,08:00,16:00,17,15,2
512,52.45815,13.31294,0,52.45809,13.31283,,,,"EKT - Ringelbande",1,241,2,07:30,16:30,07:30,16:30,07:30,16:30,07:30,16:30,07:30,16:30,17,17,0
1445,52.4859574,13.4231797,0,52.48592,13.42301,,,,"EKT - Ringelsöckchen",1,242,2,08:00,17:00,08:00,17:00,08:00,17:00,08:00,17:00,08:00,17:00,13,13,0
1703,52.5031779,13.2935896,0,52.50329,13.29357,,,,"EKT - Rönne",1,243,2,08:00,17:00,08:00,17:00,08:00,17:00,08:00,17:00,08:00,17:00,16,16,0
996,52.5246181,13.3377206,0,52.52462,13.33765,"2",,,"EKT - Rosa Wolke/Kirschkern e.V.",1,129,1,08:00,16:00,08:00,16:00,08:00,16:00,08:00,16:00,08:00,16:00,25,12,13
2632,52.53819009999999,13.3925871,1,52.534,13.39614,,,,"EKT - Rosinante",1,244,2,0,0,0,0,0,0,0,0,0,0,17,17,0
332,52.4614226,13.343824,0,52.46154,13.3438,"4|0","1|2|4",,"EKT - Rotkappe",1,245,2,07:30,16:30,07:30,16:30,07:30,16:30,07:30,16:30,07:30,16:30,15,14,1
2500,52.4426778,13.3029408,1,52.50594,13.49535,"2",,,"EKT - Rotz und Trotz",1,246,2,07:30,16:00,07:30,16:00,07:30,16:00,07:30,16:00,07:30,15:30,28,22,6
1590,52.4971973,13.4410057,0,52.49723,13.44083,,,,"EKT - Rübezahl",1,247,2,0,0,0,0,0,0,0,0,0,0,17,17,0
1918,52.4835402,13.3547391,0,52.4835,13.35455,"2",,,"EKT - Rübezahl",1,248,2,08:00,17:00,08:00,17:00,08:00,17:00,08:00,17:00,08:00,17:00,16,16,0
686,52.56924,13.37847,0,52.56922,13.37848,"2|3",,,"EKT - Rummel-Bummel",1,249,2,07:00,16:00,07:00,16:00,07:00,16:00,07:00,16:00,07:00,16:00,15,10,5
745,52.54803,13.2629,0,52.54796,13.26278,,,,"EKT - Saatwinkler Küken",1,250,2,07:30,16:30,07:30,16:30,07:30,16:30,07:30,16:30,07:30,16:30,16,12,4
1515,52.5711995,13.3757719,0,52.57116,13.37581,,,,"EKT - Saftladen",1,251,2,07:30,16:00,07:30,16:00,07:30,16:00,07:30,16:00,07:30,16:00,13,13,0
1529,52.5356748,13.3548549,0,52.53482,13.34868,"9|2",,,"EKT - Sagaland",1,252,2,08:00,17:00,08:00,17:00,08:00,17:00,08:00,17:00,08:00,16:00,18,6,12
2492,52.6003227,13.3327016,0,52.60029,13.33295,,,,"EKT - Schlumpfoase",1,253,2,0,0,0,0,0,0,0,0,0,0,20,20,0
1355,52.45881749999999,13.3775256,1,52.45786,13.38593,,,,"EKT - Schmunzelmonster",1,254,2,0,0,0,0,0,0,0,0,0,0,16,16,0
1514,52.56497,13.34988,0,52.56494,13.34995,,,,"EKT - Schülerladen Bullerbü",1,255,2,06:30,17:00,06:30,17:00,06:30,17:00,06:30,17:00,06:30,17:00,22,2,20
2553,52.5082052,13.456984,0,52.50815,13.45701,"9|2",,,"EKT - SOL",1,256,2,0,0,0,0,0,0,0,0,0,0,18,15,3
1356,52.45881749999999,13.3775256,1,52.45782,13.38639,,,,"EKT - Sonnengarten",1,257,2,08:00,16:00,08:00,16:00,08:00,16:00,08:00,16:00,08:00,16:00,20,12,8
968,52.517858,13.3025701,0,52.51779,13.30252,,,,"EKT - Sonnenkinder",1,258,2,08:00,16:00,08:00,16:00,08:00,16:00,08:00,16:00,08:00,16:00,12,12,0
1521,52.5451266,13.1441228,0,52.54515,13.14405,"2",,,"EKT - Spandauer Schwalbennest",1,259,2,07:00,16:00,07:00,16:00,07:00,16:00,07:00,16:00,07:00,15:00,17,15,2
2490,52.4930493,13.4371789,0,52.49316,13.43735,"13|0",,,"EKT - Spreesprotte",1,260,2,08:00,17:00,08:00,17:00,08:00,17:00,08:00,17:00,08:00,17:00,35,23,12
2682,52.4944822,13.4384249,0,52.49442,13.43861,"0|2",,,"EKT - Spreesprotte",1,260,2,08:00,17:00,08:00,17:00,08:00,17:00,08:00,17:00,08:00,17:00,21,15,6
2377,52.5591664,13.3830433,1,52.55176,13.38652,"2","2",,"EKT - Stadtkinder",1,261,2,07:00,17:00,07:00,17:00,07:00,17:00,07:00,17:00,07:00,17:00,23,13,10
2478,52.5591664,13.3830433,1,52.55227,13.3872,"2","2",,"EKT - Stadtkinder",1,261,2,07:00,17:00,07:00,17:00,07:00,17:00,07:00,17:00,07:00,17:00,22,22,0
2818,52.5591664,13.3830433,1,52.55148,13.38613,"2","2",,"EKT - Stadtkinder",1,261,2,07:00,17:00,07:00,17:00,07:00,17:00,07:00,17:00,07:00,17:00,20,10,10
1308,52.46572339999999,13.3205932,0,52.46564,13.32063,,,,"EKT - Steglitzer Eierpamper",1,262,2,07:30,16:30,07:30,16:30,07:30,16:30,07:30,16:30,07:30,16:30,12,4,8
755,52.44188030000001,13.2978923,0,52.442,13.29814,,,,"EKT - Steglitzer Kinderkreisel",1,263,2,0,0,0,0,0,0,0,0,0,0,37,37,0
1855,52.4160608,13.1461706,1,52.53329,13.3814,,,,"EKT - Stolper Kinderhaus",1,264,2,08:00,17:00,08:00,17:00,08:00,17:00,08:00,17:00,08:00,17:00,29,25,4
1428,52.48652,13.43615,1,52.50992,13.46738,,,,"EKT - Tarzan und Isolde",1,265,2,08:15,16:00,08:15,16:00,08:15,16:00,08:15,16:00,08:15,16:00,29,29,0
933,52.49433,13.4294,0,52.49447,13.42953,,,,"EKT - Tentakel",1,266,2,0,0,0,0,0,0,0,0,0,0,32,32,0
2535,52.53078,13.43404,0,52.5308,13.43409,"12",,,"EKT - Theaterspiel-Kita Capriola",1,267,2,07:30,17:00,07:30,17:00,07:30,17:00,07:30,17:00,07:30,17:00,27,27,0
336,52.48915,13.3907,0,52.48939,13.39075,,,,"EKT - Tigerente",1,268,2,0,0,0,0,0,0,0,0,0,0,16,12,4
349,52.58168999999999,13.39791,1,52.56035,13.43186,"2|3","0|1|4|6",,"EKT - Timpetu",1,269,2,07:30,17:00,07:30,17:00,07:30,17:00,07:30,17:00,07:30,17:00,32,19,13
1758,52.44953,13.1343,0,52.44955,13.13435,"2",,,"EKT - Traumhaus Kladow",1,270,2,0,0,0,0,0,0,0,0,0,0,56,44,12
2606,52.53845190000001,13.4096184,1,52.53255,13.41424,"2",,,"EKT - Treinta Lobitos",1,271,2,0,0,0,0,0,0,0,0,0,0,35,19,16
1816,52.4942805,13.3281428,0,52.49404,13.32813,"10|2",,,"EKT - Trolle",1,272,2,08:00,17:00,08:00,17:00,08:00,17:00,08:00,17:00,08:00,17:00,15,15,0
1602,52.4853765,13.3989037,1,52.49782,13.38471,,,,"EKT - Trompete",1,273,2,08:00,17:00,08:00,17:00,08:00,17:00,08:00,17:00,08:00,17:00,16,16,0
1239,52.4716052,13.3386302,1,52.54897,13.49498,,,,"EKT - Trotzköpfchen",1,274,2,08:00,16:00,08:00,16:00,08:00,16:00,08:00,16:00,08:00,16:00,16,16,0
2385,52.54939100000001,13.3471939,0,52.54931,13.34706,"2",,,"EKT - Tüte Mücken",1,275,2,07:00,17:00,07:00,17:00,07:00,16:00,07:00,17:00,07:00,17:00,60,32,28
903,52.4881549,13.396032,1,52.4355,13.55286,"3",,,"EKT - Veda-Lila Kindergarten",1,276,2,07:30,16:30,07:30,16:30,07:30,16:30,07:30,16:30,07:30,16:30,15,6,9
994,52.4694,13.43636,0,52.4693,13.43637,,,,"EKT - Verein z. Förderg multikult. Generation",1,277,2,0,0,0,0,0,0,0,0,0,0,46,46,0
2384,52.5424028,13.3592595,0,52.5424,13.3593,"2","2",,"EKT - Verein z. Förderung integrativer Erziehung e.V.",1,65,2,07:30,16:30,07:30,16:30,07:30,16:30,07:30,16:30,07:30,16:30,13,9,4
669,52.48666,13.36253,0,52.48664,13.36249,"16",,,"EKT - Verein zur Förderung vorschulischer Erziehung",1,278,2,07:30,16:30,07:30,16:30,07:30,16:30,07:30,16:30,07:30,16:30,52,40,12
125,52.5517268,13.4123013,1,52.54395,13.42236,,,,"EKT - Villa Kunterbund",1,279,2,07:00,17:00,07:00,17:00,07:00,17:00,07:00,17:00,07:00,17:00,27,27,0
1542,52.56021,13.38637,0,52.56018,13.38625,"2","0|2|3|5",,"EKT - Villa Römer",1,280,2,08:00,16:30,08:00,17:00,08:00,17:00,08:00,17:00,08:00,17:00,27,21,6
415,52.4583907,13.3821142,0,52.45851,13.38235,"11|2","0|2","2|3","EKT - Villa Wackelzahn",1,281,2,07:30,16:00,07:30,16:00,07:30,16:00,07:30,16:00,07:30,16:00,25,0,25
910,52.491249,13.4280236,0,52.49119,13.42801,"2",,,"EKT - Waffelbande",1,282,2,08:00,17:00,08:00,17:00,08:00,17:00,08:00,17:00,08:00,17:00,15,15,0
992,52.54769,13.39367,0,52.54765,13.39371,"16",,,"EKT - Waldorf-Kindergarten Berlin-Wedding",1,283,2,07:15,16:15,07:15,16:15,07:15,16:15,07:15,16:15,07:15,16:15,43,43,0
1498,52.61810389999999,13.3128312,0,52.61812,13.31288,"16",,,"EKT - Waldorf-Kindergarten Hermsdorf",1,284,2,08:00,15:00,08:00,15:00,08:00,15:00,08:00,15:00,08:00,15:00,40,37,3
1819,52.4805824,13.3241005,0,52.48054,13.32401,"16",,,"EKT - Waldorfkindergarten Rosenhof",1,285,2,07:15,16:15,07:15,16:15,07:15,16:15,07:15,16:15,07:15,16:15,24,19,5
1597,52.49551,13.44454,0,52.49543,13.44447,"2","4",,"EKT - Whistcastle of Eternia",1,286,2,08:00,18:00,08:00,18:00,08:00,18:00,08:00,18:00,08:00,18:00,2,0,2
1623,52.49296,13.43831,0,52.49297,13.43835,"2",,,"EKT - Wilde 13",1,287,2,0,0,0,0,0,0,0,0,0,0,18,18,0
1808,52.48199,13.324,0,52.48195,13.32401,,,,"EKT - Wilde Hilde",1,288,2,08:00,16:15,08:00,16:15,08:00,16:15,08:00,16:15,08:00,16:15,17,17,0
1911,52.4608708,13.3663032,0,52.46082,13.36635,,,,"EKT - Wilde Tiger e.V.",1,289,2,0,0,0,0,0,0,0,0,0,0,19,19,0
2680,52.46438999999999,13.51449,0,52.46438,13.51449,,,,"EKT - WindFee",1,290,2,07:00,17:00,07:00,17:00,07:00,17:00,07:00,17:00,07:00,17:00,30,30,0
528,52.4981452,13.2890359,1,52.46642,13.39342,,,,"EKT - Wir um vier",1,291,2,0,0,0,0,0,0,0,0,0,0,17,15,2
1612,52.50454,13.39532,0,52.50452,13.39541,,,,"EKT - Wohnhof e.V.",1,292,2,0,0,0,0,0,0,0,0,0,0,15,15,0
1705,52.510078,13.3071589,1,52.40968,13.39613,,,,"EKT - Wusel",1,293,2,08:00,16:30,08:00,16:30,08:00,16:30,08:00,16:30,08:00,16:30,15,15,0
1424,52.4833174,13.4337113,0,52.4834,13.43378,,,,"EKT - Yong",1,294,2,08:30,16:30,08:30,16:30,08:30,16:30,08:30,16:00,08:30,16:30,15,8,7
1691,52.5073154,13.3023095,0,52.50738,13.30248,,"3","6","EKT - Yoyo",1,295,2,08:00,17:15,08:00,17:15,08:00,17:15,08:00,17:15,08:00,17:15,27,20,7
2432,52.49899,13.40039,0,52.49899,13.40028,"2",,,"EKT - Zappergeck",1,296,2,08:00,17:00,08:00,17:00,08:00,17:00,08:00,17:00,08:00,16:30,21,15,6
2647,52.54642250000001,13.4076808,0,52.5464,13.4076,"6|0",,,"EKT - Zebra Int. Kiga",1,297,2,0,0,0,0,0,0,0,0,0,0,18,18,0
1613,52.4914047,13.3850954,0,52.49125,13.38509,,,,"EKT - Zinnober",1,298,2,08:00,17:00,08:00,17:00,08:00,17:00,08:00,17:00,08:00,17:00,49,37,12
865,52.4872208,13.3967205,0,52.48717,13.39695,"2",,,"EKT - Zippel und Zappel",1,299,2,0,0,0,0,0,0,0,0,0,0,17,17,0
499,52.4546988,13.3833721,0,52.45479,13.38358,,,,"EKT - Zwergenland",1,300,2,0,0,0,0,0,0,0,0,0,0,25,25,0
1304,52.4609647,13.3140513,0,52.46101,13.31387,,,,"EKT - Zwergstatt",1,301,2,0,0,0,0,0,0,0,0,0,0,15,11,4
100030,52.48878999999999,13.32424,0,52.48878,13.32444,"21",,,"EKT Kajtek - Verein zur Förderung",1,302,2,0,0,0,0,0,0,0,0,0,0,26,26,0
942,52.48787249999999,13.3524013,1,52.56776,13.55416,"2",,,"EKT Affentheater",1,303,2,08:00,17:00,08:00,17:00,08:00,17:00,08:00,17:00,08:00,17:00,15,11,4
553229,52.4848148,13.3826377,0,52.48484,13.38256,"12|2","3|4|6","0","EKT Al Naml - Die Ameisen",1,304,1,07:30,17:00,07:30,17:00,07:30,17:00,07:30,17:00,07:30,17:00,26,18,8
2969,52.4665472,13.436528,0,52.46652,13.43671,"2",,,"EKT Ali Baba und seine Räuber",1,73,2,0,0,0,0,0,0,0,0,0,0,30,30,0
517229,52.44622,13.57769,0,52.44621,13.57781,,,,"EKT Altstadtkrokodile",1,305,2,0,0,0,0,0,0,0,0,0,0,25,null,null
2707,52.5538494,13.3482976,0,52.55381,13.34836,"2","4",,"EKT am Schillerpark",1,306,2,07:15,16:15,07:15,16:15,07:15,16:15,07:15,16:15,07:15,16:15,6,0,6
2688,52.5637862,13.395852,0,52.56374,13.39587,,,,"EKT Auenland",1,307,2,07:30,17:00,07:30,17:00,07:30,17:00,07:30,17:00,07:30,16:30,20,16,4
2627,52.5465351,13.3492266,0,52.54638,13.34926,"2",,"0","EKT Bäumchen",1,308,2,0,0,0,0,0,0,0,0,0,0,20,16,4
737229,52.46641,13.48519,0,52.46632,13.48528,"3",,,"EKT Baumzaubertraum",1,309,2,0,0,0,0,0,0,0,0,0,0,18,null,null
380279,52.5513456,13.3398136,0,52.5512,13.34011,,"1|4|6",,"EKT Berliner Stadtmäuse",1,310,1,08:00,17:00,08:00,17:00,08:00,17:00,08:00,17:00,08:00,17:00,25,15,10
2934,52.50173400000001,13.4312466,0,52.50169,13.43126,"2",,,"EKT Bessere Zukunft für Kinder",1,311,2,08:30,16:30,08:30,16:30,08:30,16:30,08:30,16:30,08:30,16:30,15,10,5
168129,52.5214686,13.3357247,0,52.5215,13.33568,,,,"EKT biberbau",1,125,2,0,0,0,0,0,0,0,0,0,0,20,20,0
2559,52.5467764,13.4151458,0,52.54671,13.41532,"0|2",,,"EKT Billabong 02",1,312,2,08:30,17:00,08:30,17:00,08:30,17:00,08:30,17:00,08:30,17:00,20,20,0
1694,52.51406,13.28849,0,52.51407,13.28969,"0|2",,,"EKT Bollerwagen Charlottenburg",1,313,2,07:30,16:30,07:30,16:30,07:30,16:30,07:30,16:30,07:30,16:30,24,24,0
136129,52.55034999999999,13.41145,0,52.55062,13.41156,"2",,,"EKT Bullerbü",1,314,2,08:00,16:30,08:00,16:30,08:00,16:30,08:00,16:30,08:00,16:30,20,13,7
2539,52.49439,13.41725,0,52.49428,13.41728,"2","3",,"EKT Bunte Mischung",1,315,2,08:00,16:30,08:00,16:30,08:00,16:30,08:00,16:30,08:00,16:30,25,15,10
527229,52.5466276,13.4097034,0,52.54654,13.40973,"2|3","2|4|6",,"EKT Cantianstraße",1,316,2,08:00,17:00,08:00,17:00,08:00,16:00,08:00,17:00,08:00,17:00,25,15,10
2565,52.5035664,13.2915117,0,52.50351,13.29156,"22",,,"EKT Coquelicot",1,317,2,08:00,17:00,08:00,17:00,08:00,17:00,08:00,17:00,08:00,17:00,25,25,0
224129,52.52797,13.3325,0,52.52785,13.33333,"2",,,"EKT Die Bärenbande",1,318,1,08:00,16:00,08:00,16:00,08:00,16:00,08:00,16:00,08:00,16:00,20,15,5
2506,52.462522,13.5886574,0,52.46253,13.58845,"13|3|16","4|6",,"EKT Die Grünspechte",1,319,2,07:30,17:00,07:30,17:00,07:30,17:00,07:30,17:00,07:30,17:00,16,9,7
2650,52.426037,13.3317728,0,52.42606,13.33202,"2",,,"EKT Die Maulwürfe",1,320,2,07:45,16:45,07:45,16:45,07:45,16:45,07:45,16:45,07:45,16:00,45,36,9
2637,52.4590717,13.5820792,0,52.45918,13.58206,"2|3","0|1|4|6",,"EKT Die Sternenfischer",1,321,2,07:30,16:30,07:30,16:30,07:30,16:30,07:30,16:30,07:30,16:00,17,10,7
380329,52.50927,13.30232,1,52.51415,13.30075,"2|3","0|1|3|4|6",,"EKT Die wilden 25",1,46,1,07:30,18:00,07:30,18:00,07:30,18:00,07:30,17:00,07:30,17:00,24,19,5
2493,52.5425,13.41522,0,52.54231,13.41573,,,,"EKT Domino",1,322,2,08:00,17:00,08:00,17:00,08:00,17:00,08:00,17:00,08:00,17:00,30,30,0
1805,52.4868693,13.3137346,0,52.49106,13.31953,"2","6",,"EKT Dreckspatzen",1,323,2,07:30,16:30,07:30,16:30,07:30,16:30,07:30,16:30,07:30,16:30,18,16,2
2511,52.4957809,13.5064344,0,52.49572,13.50646,"13|12|3","0|1|2|3|4|6|5",,"EKT Eene meene mopel",1,324,2,07:00,17:00,07:00,17:00,07:00,17:00,07:00,17:00,07:00,17:00,62,43,19
100021,52.51576,13.303,0,52.51567,13.30294,"23",,"4","EKT EL Carrusel",1,325,2,07:30,16:30,07:30,16:30,07:30,16:30,07:30,16:30,07:30,16:30,24,18,6
532229,52.5506118,13.4105922,0,52.55061,13.41053,"2",,"4","EKT el jardin de Mafalda",1,326,1,08:00,17:00,08:00,17:00,08:00,17:00,08:00,17:00,08:00,17:00,26,19,7
651229,52.5504,13.4526,0,52.55031,13.45272,"2",,"4","EKT el jardin de Mafalda",1,326,1,08:00,17:00,08:00,17:00,08:00,17:00,08:00,17:00,08:00,17:00,25,7,18
2552,52.5335902,13.4335356,0,52.53358,13.4336,"3","1|4",,"EKT Elfenland",1,327,2,08:00,17:00,08:00,15:30,08:00,17:00,08:00,17:00,08:00,17:00,29,19,10
100050,52.5087895,13.4634136,0,52.50873,13.46343,,,,"EKT Elfenwelt",1,328,2,0,0,0,0,0,0,0,0,0,0,20,20,0
376129,52.46974849999999,13.430588,0,52.46982,13.43076,"2",,,"EKT Elif und Emil",1,329,1,08:00,17:00,08:00,17:00,08:00,17:00,08:00,17:00,08:00,17:00,26,26,0
1922,52.4934357,13.3527152,1,52.41467,13.54595,,,,"EKT Feuerkäfer",1,330,2,08:00,16:30,08:00,16:30,08:00,16:30,08:00,16:30,08:00,16:30,16,14,2
409129,52.55184999999999,13.43211,0,52.55183,13.43226,"2",,,"EKT Filippo",1,331,1,07:30,16:30,07:30,16:30,07:30,16:30,07:30,16:30,07:30,16:30,25,11,14
2600,52.4864587,13.3956265,0,52.48657,13.39567,"10|2","1|4|6",,"EKT Fino und Fleur",1,332,2,08:00,17:00,08:00,17:00,08:00,17:00,08:00,17:00,08:00,17:00,15,10,5
1690,52.5142727,13.2945773,0,52.51427,13.29451,"2",,,"EKT Firlefanz",1,333,2,07:00,16:00,07:00,16:00,07:00,16:00,07:00,16:00,07:00,16:00,17,17,0
103179,52.48627,13.46522,0,52.48627,13.4652,"2",,,"EKT Flitzpiepen",1,334,2,08:00,17:00,08:00,17:00,08:00,17:00,08:00,17:00,08:00,17:00,20,20,0
727,52.52188,13.33807,0,52.52184,13.33818,,,,"EKT Flocke",1,335,2,07:45,16:45,07:45,16:45,07:45,16:45,07:45,16:45,07:45,16:45,25,22,3
1241,52.4689636,13.3235404,0,52.46893,13.32364,,,,"EKT Friedenauer Kinder",1,336,2,07:30,16:30,07:30,16:30,07:30,16:30,07:30,16:30,07:30,16:30,15,13,2
2505,52.4527037,13.626789,0,52.45279,13.62678,"12",,,"EKT Friedrichshagener Kinderladen",1,337,2,07:30,17:00,07:30,17:00,07:30,17:00,07:30,17:00,07:30,17:00,18,15,3
2815,52.513924,13.460681,0,52.51385,13.46073,"0",,,"EKT- Friedrichshainer Mäuse",1,338,2,07:00,17:00,07:00,17:00,07:00,17:00,07:00,17:00,07:00,17:00,21,10,11
2968,52.54004,13.3581,0,52.54003,13.35825,,"6",,"EKT Frischlinge",1,339,2,08:00,16:00,08:00,16:00,08:00,16:00,08:00,16:00,08:00,16:00,13,7,6
2588,52.44774,13.63441,0,52.44765,13.63448,"12|2",,,"EKT Frühling-Sommer-Herbst-Winter",1,340,2,07:00,17:00,07:00,17:00,07:00,17:00,07:00,17:00,07:00,17:00,30,23,7
338,52.5188871,13.316313,0,52.51882,13.3159,"3",,,"EKT Galvanistr. 14",1,341,2,07:30,16:30,07:30,16:30,07:30,16:30,07:30,16:30,07:30,16:30,24,12,12
508,52.55609,13.34345,0,52.5561,13.34359,"2",,,"EKT Gänseblümchen",1,342,2,08:00,16:00,08:00,16:00,08:00,16:00,08:00,16:00,08:00,16:00,15,0,15
2524,52.56388099999999,13.4211541,0,52.56392,13.42089,"1",,,"EKT Gartenkinder",1,343,2,08:00,17:00,08:00,17:00,08:00,17:00,08:00,17:00,08:00,16:00,24,14,10
2472,52.5686706,13.3982135,0,52.5687,13.39797,"13|2|3","0|4|6",,"EKT Garuda",1,344,2,08:00,16:45,08:00,16:45,08:00,16:45,08:00,16:45,08:00,16:45,18,15,3
2687,52.49525,13.17989,0,52.49519,13.17996,"1|2","4|6","1","EKT- Gatower Straße",1,345,2,07:30,17:00,07:30,17:00,07:30,17:00,07:30,17:00,07:30,17:00,16,16,0
867,52.51443,13.28844,0,52.51436,13.2883,,,,"EKT Gemeinnütziger Charlottenburger Kila",1,346,2,0,0,0,0,0,0,0,0,0,0,25,25,0
2579,52.43076,13.19534,1,52.41954,13.54041,"13|0","6",,"EKT Giardino dei Bambini",1,347,2,08:00,16:00,08:00,16:00,08:00,16:00,08:00,16:00,08:00,16:00,20,19,1
972,52.48055,13.331,0,52.48056,13.33102,"24",,,"EKT Girasole",1,348,2,08:00,17:00,08:00,17:00,08:00,17:00,08:00,17:00,08:00,17:00,32,23,9
2558,52.4895359,13.3908554,0,52.48967,13.39087,"12","3","7","EKT Girotondo",1,349,2,08:00,17:00,08:00,17:00,08:00,17:00,08:00,17:00,08:00,16:30,30,29,1
552279,52.56527,13.4007666,0,52.56521,13.40049,,,,"EKT Glückskind",1,350,1,0,0,0,0,0,0,0,0,0,0,26,null,null
2904,52.53102,13.42332,0,52.53115,13.42307,"2",,,"EKT Glühwürmchen",1,351,2,08:00,17:00,08:00,17:00,08:00,17:00,08:00,17:00,08:00,17:00,19,16,3
1930,52.54669,13.41052,0,52.54649,13.41046,"9|10|4|1",,,"EKT Grashüpfer",1,352,2,0,0,0,0,0,0,0,0,0,0,18,13,5
415129,52.503448,13.4818359,0,52.50345,13.48189,,,,"EKT Großstadtindianer",1,353,1,0,0,0,0,0,0,0,0,0,0,30,30,0
340,52.464549,13.3428434,0,52.46437,13.34282,"13|0|2","1|2|4|6",,"EKT Großstadtpflänzchen",1,354,2,07:30,16:30,07:30,16:30,07:30,16:30,07:30,16:30,07:30,16:30,16,10,6
1682,52.51863909999999,13.28793,0,52.51866,13.28797,"2","2|3|4|6",,"EKT Grüne Erdferkel",1,355,2,08:00,16:30,08:00,16:30,08:00,16:00,08:00,16:30,08:00,16:00,17,12,5
1685,52.51356,13.28047,0,52.51351,13.28033,,,,"EKT Grünes Nashorn",1,356,2,0,0,0,0,0,0,0,0,0,0,18,18,0
2644,52.5313039,13.4355864,0,52.53126,13.43567,"2",,,"EKT Guckloch",1,357,2,08:00,17:00,08:00,17:00,08:00,17:00,08:00,17:00,08:00,17:00,30,17,13
554,52.49323159999999,13.3960285,0,52.49325,13.39595,,,,"EKT Guten Tag Kinder",1,358,2,08:30,16:00,08:30,16:00,08:30,16:00,08:30,16:00,08:30,16:00,14,null,null
577,52.46462,13.3429364,0,52.46462,13.34289,"2",,,"EKT Harrys Kid's Club",1,359,2,07:30,18:00,07:30,18:00,07:30,18:00,07:30,18:00,07:30,18:00,26,16,10
586,52.47756,13.42135,0,52.47748,13.42146,"0|2",,,"EKT Hasenreiter",1,360,2,08:00,17:00,08:00,17:00,08:00,17:00,08:00,17:00,08:00,17:00,16,16,0
748329,52.5862925,13.3986874,1,52.48533,13.58147,,,,"EKT Hauptstadtindianer",1,361,2,0,0,0,0,0,0,0,0,0,0,23,null,null
1253,52.4752375,13.333041,0,52.47526,13.3331,,,,"EKT Hauruck",1,362,2,0,0,0,0,0,0,0,0,0,0,15,11,4
1027,52.4927344,13.1820284,0,52.49274,13.18184,"10|2","4",,"EKT Havelbande",1,363,2,07:00,17:00,07:00,17:00,07:00,17:00,07:00,17:00,07:00,16:00,38,32,6
591,52.59952879999999,13.3485389,0,52.59817,13.35044,"2",,,"EKT Heinzegraben",1,364,2,08:30,16:00,08:30,16:00,08:30,16:00,08:30,16:00,08:30,16:00,14,12,2
410129,52.5141535,13.4996876,0,52.51412,13.4995,"13|2","6",,"EKT Herzberger Wurzelzwerge",1,365,1,07:30,17:30,07:30,17:30,07:30,17:30,07:30,17:30,07:30,17:30,30,15,15
1002,52.48938,13.41054,0,52.48898,13.4105,,,,"EKT Herzlichtgarten",1,366,2,07:30,17:30,07:30,17:30,07:30,17:30,07:30,17:30,07:30,17:30,18,13,5
918,52.482,13.44306,1,52.51238,13.4681,"2","2",,"EKT Highway",1,367,2,07:30,17:00,07:30,17:00,07:30,17:00,07:30,17:00,07:30,17:00,33,33,0
561,52.48199229999999,13.3213456,0,52.48195,13.32142,"19",,,"EKT Hildegarten",1,368,2,0,0,0,0,0,0,0,0,0,0,20,15,5
984,52.5862209,13.280269,0,52.58606,13.28033,,,,"EKT Hokus Pokus",1,369,2,06:30,18:30,06:30,18:30,06:30,18:30,06:30,18:30,06:30,18:30,15,15,0
1626,52.49489089999999,13.4325727,0,52.49329,13.43864,"16",,,"EKT Hollerbusch",1,370,2,07:00,16:00,07:00,16:00,07:00,16:00,07:00,16:00,07:00,16:00,21,13,8
2466,52.5337156,13.4279706,0,52.53375,13.4279,"0",,,"EKT Im Känguru",1,371,2,0,0,0,0,0,0,0,0,0,0,28,28,0
1688,52.5045799,13.2948392,0,52.50453,13.29456,,,,"EKT Ingrids Kindergarten",1,372,2,0,0,0,0,0,0,0,0,0,0,15,15,0
529229,52.4830225,13.3824224,0,52.48303,13.38244,,,,"EKT Inselreich",1,373,1,0,0,0,0,0,0,0,0,0,0,25,null,null
176,52.5115691,13.4661225,0,52.51171,13.46587,"13|12|2",,,"EKT Integrative Kinderbetreuung NIDO",1,374,2,07:30,16:30,07:30,16:30,07:30,16:30,07:30,16:30,07:30,16:30,30,30,0
1305,52.4537118,13.3275763,1,52.57021,13.40883,"2",,,"EKT Ja Ja He und Co.",1,375,2,0,0,0,0,0,0,0,0,0,0,17,14,3
100017,52.504596,13.451179,0,52.50462,13.45138,"13|0","0|1|3|4|6",,"EKT JAMSAPALPIM e.V.",1,376,2,08:00,17:00,08:00,17:00,08:00,17:00,08:00,17:00,08:00,16:00,20,14,6
2381,52.5591664,13.3830433,1,52.5551,13.37603,,,,"EKT Jo Jo",1,377,2,08:00,17:00,08:00,17:00,08:00,17:00,08:00,17:00,08:00,17:00,26,26,0
2749,52.5490072,13.4085717,1,52.57978,13.36257,,,,"EKT Josephine",1,378,2,08:00,17:00,08:00,17:00,08:00,17:00,08:00,17:00,08:00,17:00,27,17,10
1352,52.4099,13.3547,0,52.40976,13.35413,"0","3|6",,"EKT Jungadler",1,379,2,07:00,16:00,07:00,16:00,07:00,16:00,07:00,16:00,07:00,16:00,28,28,0
100037,52.49703,13.43206,0,52.49705,13.43206,"22",,,"EKT Jungle",1,380,2,08:00,17:00,08:00,17:00,08:00,17:00,08:00,17:00,08:00,17:00,26,18,8
136179,52.4913037,13.4473993,0,52.49134,13.4474,,,,"EKT Karl und Karla",1,381,2,08:00,16:00,08:00,16:00,08:00,16:00,08:00,16:00,08:00,16:00,18,15,3
513229,52.48978,13.37706,0,52.48976,13.37699,,,,"EKT Katzbachstraße",1,382,1,0,0,0,0,0,0,0,0,0,0,25,12,13
936,52.50786,13.34385,0,52.50788,13.34438,"2",,,"EKT Kids 2000",1,383,2,07:30,17:30,07:30,17:30,07:30,17:30,07:30,17:30,07:30,17:30,39,26,13
450129,52.4853666,13.3352312,0,52.48533,13.33547,"13|4|2",,,"EKT Kinder - Land in Sicht",1,384,2,08:00,17:00,08:00,17:00,08:00,17:00,08:00,17:00,08:00,17:00,24,20,4
1510,52.6371686,13.3003091,0,52.63716,13.30028,,,,"EKT Kinderhaus Frohnau",1,385,2,07:30,15:30,07:30,15:30,07:30,15:30,07:30,15:30,07:30,15:30,28,28,0
966,52.503014,13.43338,0,52.50298,13.43346,,,,"EKT -Kinderladen Trau Dich",1,386,2,0,0,0,0,0,0,0,0,0,0,25,25,0
564,52.4855696,13.3241937,0,52.48566,13.3242,,,,"EKT Kinderland",1,387,2,0,0,0,0,0,0,0,0,0,0,14,14,0
471129,52.55576000000001,13.34503,0,52.55576,13.34488,"2|16",,,"EKT Kinderoase",1,388,1,08:00,16:00,08:00,16:00,08:00,16:00,08:00,16:00,08:00,16:00,25,25,0
210129,52.5517268,13.4123013,1,52.54496,13.42328,,,,"EKT Kindertraum",1,389,1,09:00,17:00,09:00,17:00,09:00,17:00,09:00,17:00,09:00,17:00,17,0,17
2665,52.50586999999999,13.39513,0,52.50582,13.39528,"13|2","0|1|2|3|4|6","8|3","EKT- Kindervilla Waldemar (Springerareal)",1,163,2,07:00,17:00,07:00,17:00,07:00,17:00,07:00,17:00,07:00,17:00,80,60,20
476129,52.53194999999999,13.42316,0,52.5318,13.42318,"22",,,"EKT Kitanelle coccinelle",1,390,1,0,0,0,0,0,0,0,0,0,0,23,15,8
801,52.5236068,13.3496093,0,52.52365,13.34947,,,,"EKT Kleckerburg",1,391,2,0,0,0,0,0,0,0,0,0,0,16,16,0
1589,52.5197198,13.4640755,0,52.51968,13.46414,,,,"EKT Klein und Stark",1,392,2,0,0,0,0,0,0,0,0,0,0,25,25,0
1311,52.4457,13.30843,0,52.44567,13.30826,"2","0|4","1","EKT Kleine Drachen",1,393,2,08:00,16:30,08:00,16:30,08:00,16:30,08:00,16:30,08:00,15:30,17,13,4
2708,52.5542586,13.3486918,0,52.55433,13.34855,,,,"EKT Kleine Himmelswolke",1,394,2,07:30,16:30,07:30,16:30,07:30,16:30,07:30,16:30,07:30,16:30,16,6,10
1505,52.6113691,13.245852,0,52.6106,13.24744,"2","4",,"EKT Kleine Pusteblume",1,395,2,07:00,17:00,07:00,17:00,07:00,17:00,07:00,17:00,07:00,17:00,30,18,12
1756,52.5234093,13.2023398,0,52.52346,13.20241,"3",,,"EKT Kleine Riesen",1,396,2,07:00,16:00,07:00,16:00,07:00,16:00,07:00,16:00,07:00,15:00,24,15,9
822,52.4830386,13.3542784,1,52.48887,13.35771,,,,"EKT Kleine Ungeheuer",1,397,2,08:00,16:00,08:00,16:00,08:00,16:00,08:00,16:00,08:00,16:00,16,16,0
553279,52.45419,13.32762,0,52.45419,13.32785,,,,"EKT Kleine Zwergenparade",1,398,2,0,0,0,0,0,0,0,0,0,0,23,null,null
548,52.4893942,13.3550198,1,52.49319,13.35492,"2",,,"EKT Konfetti",1,399,2,08:00,16:00,08:00,16:00,08:00,16:00,08:00,16:00,08:00,16:00,15,12,3
138129,52.52992,13.43545,0,52.53011,13.43566,,,,"EKT Krabbelkörbchen",1,400,2,0,0,0,0,0,0,0,0,0,0,17,0,17
2379,52.54657520000001,13.3475525,0,52.54656,13.34764,,,,"EKT Krümelbande",1,401,2,0,0,0,0,0,0,0,0,0,0,13,13,0
100044,52.4899254,13.388043,0,52.48978,13.38797,"2",,,"EKT Krümelmonster e.V.",1,186,2,08:00,16:00,08:00,16:00,08:00,16:00,08:00,16:00,08:00,16:00,17,6,11
1427,52.4859574,13.4231797,0,52.48592,13.42301,"11|12",,,"EKT -Kwetu",1,402,2,08:00,17:00,08:00,17:00,08:00,17:00,08:00,17:00,08:00,17:00,18,18,0
573,52.50118029999999,13.3380778,1,52.49884,13.34065,"2",,,"EKT L' Angolino",1,403,2,08:00,17:00,08:00,17:00,08:00,17:00,08:00,17:00,08:00,17:00,30,30,0
664,52.4846844,13.335527,0,52.48466,13.33549,"13|4|2",,,"EKT Land in Sicht",1,384,2,08:00,17:00,08:00,17:00,08:00,17:00,08:00,17:00,08:00,17:00,13,1,12
580,52.4346939,13.2929626,0,52.43468,13.29323,,,,"EKT Langzeit",1,404,2,0,0,0,0,0,0,0,0,0,0,18,14,4
509,52.4315532,13.3406557,0,52.43154,13.34063,,"2",,"EKT Lankwitz",1,405,2,07:30,16:30,07:30,16:30,07:30,16:30,07:30,16:30,07:30,16:30,22,19,3
480179,52.5491654,13.424177,0,52.54915,13.4242,"0",,,"EKT Libelle",1,406,1,08:00,16:00,08:00,16:00,08:00,16:00,08:00,16:00,08:00,16:00,23,15,8
677,52.488399,13.438125,0,52.48842,13.4382,"2","2",,"EKT Lima",1,407,2,07:30,17:00,07:30,17:00,07:30,17:00,07:30,17:00,07:30,17:00,35,22,13
2429,52.4959749,13.4343698,0,52.49596,13.43436,"13",,,"EKT Lindenblüte",1,408,2,08:30,16:30,08:30,16:30,08:30,16:30,08:30,16:30,08:30,16:30,13,9,4
297129,52.6033565,13.3162544,0,52.60339,13.31621,,,,"EKT Lollipopp",1,409,1,07:00,17:30,07:00,17:30,07:00,17:30,07:00,17:30,07:00,17:30,34,19,15
2902,52.48932,13.40042,0,52.48898,13.40043,"0|2",,,"EKT Löwenherz & Spunk e.V.",1,410,2,08:00,16:00,08:00,16:00,08:00,16:00,08:00,16:00,08:00,16:00,19,11,8
473329,52.479914,13.5143749,0,52.47981,13.51448,,,,"EKT Luna Sternenstaub",1,411,1,07:30,17:00,07:30,17:00,07:30,17:00,07:30,17:00,07:30,16:00,25,15,10
380,52.4925736,13.4365348,0,52.49252,13.43672,"16",,,"EKT Makke",1,412,2,07:30,16:30,07:30,16:30,07:30,16:30,07:30,16:30,07:30,16:30,22,13,9
1807,52.4897208,13.3179019,0,52.48978,13.31783,"13|0",,,"EKT Manimatschi",1,413,2,0,0,0,0,0,0,0,0,0,0,21,13,8
584,52.40702289999999,13.3492397,0,52.40713,13.34926,,,,"EKT Marienfelde",1,414,2,07:30,16:30,07:30,16:30,07:30,16:30,07:30,16:30,07:30,16:30,26,26,0
500229,52.4539,13.43852,0,52.45383,13.4384,"2","0|1|3|4|6","3","EKT Matschmonster",1,415,1,08:00,17:00,08:00,17:00,08:00,17:00,08:00,17:00,08:00,17:00,25,14,11
1607,52.49698,13.4428,0,52.4969,13.44292,"2","2|4|6",,"EKT Mauseblitz",1,416,2,08:00,17:00,08:00,17:00,08:00,17:00,08:00,17:00,08:00,17:00,19,17,2
318129,52.55611,13.38774,0,52.556,13.38789,"3","0|1|2|4",,"EKT Meilenstein",1,417,1,07:00,17:00,07:00,17:00,07:00,17:00,07:00,17:00,07:00,17:00,37,19,18
622229,52.5917165,13.3835886,1,52.58876,13.40192,,,,"EKT Melodiekiste",1,418,2,0,0,0,0,0,0,0,0,0,0,25,null,null
737,52.49425,13.41119,0,52.49412,13.41109,,,,"EKT Minifee",1,419,2,08:00,17:00,08:00,17:00,08:00,17:00,08:00,17:00,08:00,17:00,21,17,4
2603,52.3861,13.39778,0,52.38605,13.39775,"2",,,"EKT Mini-Kids-Salvator",1,420,2,07:30,15:30,07:30,15:30,07:30,15:30,07:30,15:30,07:30,15:30,24,22,2
545279,52.4853765,13.3989037,1,52.49655,13.38005,,,,"EKT MiniMonster",1,186,2,0,0,0,0,0,0,0,0,0,0,23,null,null
2462,52.5325236,13.4098912,0,52.53245,13.40993,,,,"EKT Mittenmang",1,421,2,0,0,0,0,0,0,0,0,0,0,20,20,0
633229,52.54489,13.4377,0,52.54489,13.43763,,,,"EKT Mooswuffel",1,422,2,0,0,0,0,0,0,0,0,0,0,23,null,null
1362,52.4107352,13.3756523,1,52.41713,13.32117,"2",,,"EKT Mücke",1,423,2,07:15,16:15,07:15,16:15,07:15,16:15,07:15,16:15,07:15,16:15,17,11,6
100048,52.53322,13.43244,0,52.5333,13.43277,,,,"EKT Mucklas",1,424,2,08:00,17:00,08:00,17:00,08:00,17:00,08:00,17:00,08:00,17:00,23,23,0
1616,52.5031972,13.4258761,0,52.50319,13.426,,,,"EKT Muskauer Str. 30",1,425,2,08:00,17:30,08:00,17:30,08:00,17:30,08:00,17:30,08:00,17:30,14,14,0
746,52.4916493,13.3264586,0,52.49025,13.3262,,,,"EKT Narrenfreiheit",1,426,2,08:00,16:00,08:00,16:00,08:00,16:00,08:00,16:00,08:00,16:00,14,11,3
2903,52.52529999999999,13.39838,0,52.52527,13.39835,"1",,,"EKT NaturKindergarten Berlin Mitte",1,427,2,08:00,16:00,08:00,16:00,08:00,16:00,08:00,16:00,08:00,16:00,19,14,5
1250,52.4876598,13.3524371,1,52.56808,13.55319,"2",,,"EKT Nusskasper",1,428,2,08:30,16:00,08:30,16:00,08:30,16:00,08:30,16:00,08:30,16:00,17,17,0
514229,52.54893,13.49324,0,52.54885,13.49319,"2",,,"EKT Oberseeräuber",1,429,1,07:00,16:30,07:00,16:30,07:00,16:30,07:00,16:30,07:00,16:30,26,13,13
802,52.540071,13.396196,1,52.51947,13.6442,,,,"EKT Omas Garten",1,430,2,0,0,0,0,0,0,0,0,0,0,76,76,0
1860,52.44744,13.25209,0,52.44745,13.25211,"0",,,"EKT Onkel-Toms-Hütte",1,431,2,08:00,16:00,08:00,16:00,08:00,16:00,08:00,16:00,08:00,16:00,12,12,0
2881,52.4785923,13.3475677,0,52.47862,13.34756,"2",,,"EKT Onnimanni",1,432,2,07:45,16:45,07:45,16:45,07:45,16:45,07:45,16:45,07:45,16:45,24,16,8
299,52.49459,13.41412,0,52.49455,13.41424,"2",,,"EKT Optimisten",1,433,2,0,0,0,0,0,0,0,0,0,0,13,8,5
530,52.48051,13.44636,0,52.48046,13.44647,,,,"EKT Orgelpfeifen",1,434,2,0,0,0,0,0,0,0,0,0,0,15,15,0
1760,52.5492266,13.2100992,0,52.54916,13.21003,"2",,,"EKT Oscar",1,223,2,06:00,18:00,06:00,18:00,06:00,18:00,06:00,18:00,06:00,18:00,24,24,0
2963,52.5362753,13.4005033,0,52.53627,13.40043,"2",,,"EKT Paul Kirschkern/Vorderhaus",1,129,1,0,0,0,0,0,0,0,0,0,0,25,15,10
352129,52.5527289,13.4049186,0,52.55271,13.40492,,,,"EKT Paul-Robeson-Straße",1,435,1,0,0,0,0,0,0,0,0,0,0,30,17,13
1671,52.51952,13.3054,0,52.5193,13.30543,"2",,,"EKT Pezzettino",1,436,2,07:30,16:30,07:30,16:30,07:30,16:30,07:30,16:30,07:30,16:30,13,7,6
1310,52.44758539999999,13.3169397,1,52.51149,13.54561,,"0|1|4|6|5",,"EKT Pippifax",1,437,2,07:30,16:00,07:30,16:00,07:30,16:00,07:30,16:30,07:30,15:30,20,16,4
563,52.49036,13.33341,0,52.4904,13.33329,"2",,,"EKT Prinz Güntzel",1,438,2,0,0,0,0,0,0,0,0,0,0,23,23,0
1008,52.4737996,13.4468236,0,52.47384,13.447,,,,"EKT Puck",1,439,2,08:00,17:00,08:00,17:00,08:00,17:00,08:00,17:00,08:00,17:00,26,16,10
973,52.4741844,13.2945457,0,52.47442,13.29499,"0","0|1|2|4|6","1","EKT Pünktchen und Anton",1,440,2,07:30,17:00,07:30,17:00,07:30,17:00,07:30,17:00,07:30,17:00,40,35,5
502229,52.45525,13.58027,0,52.45519,13.58042,"0","6",,"EKT Rabenkinder",1,441,1,07:00,17:00,07:00,17:00,07:00,17:00,07:00,17:00,07:00,17:00,20,12,8
738,52.4952459,13.4172501,0,52.49512,13.41701,"2",,,"EKT Räuberhöhle",1,442,2,08:00,17:00,08:00,17:00,08:00,17:00,08:00,17:00,08:00,17:00,18,18,0
2459,52.52181,13.35079,0,52.52181,13.3513,,,,"EKT Regenbogen",1,443,2,0,0,0,0,0,0,0,0,0,0,18,14,4
345,52.58835939999999,13.2464014,1,52.60054,13.21155,,,,"EKT Regenbogenkinder",1,444,2,08:00,16:00,08:00,16:00,08:00,16:00,08:00,16:00,08:00,16:00,30,24,6
341129,52.4936,13.43607,0,52.49363,13.43609,"2",,,"EKT Reichenberger Straße",1,260,2,08:00,17:00,08:00,17:00,08:00,17:00,08:00,17:00,08:00,17:00,15,11,4
749229,52.47114639999999,13.328362,1,52.48828,13.3305,,,,"EKT Sankofa",1,445,2,0,0,0,0,0,0,0,0,0,0,48,null,null
100129,52.54790999999999,13.40183,0,52.5477,13.40193,"12|2",,,"EKT Sausebrause",1,446,2,08:00,16:30,08:00,16:30,08:00,16:30,08:00,16:30,08:00,16:30,25,18,7
2884,52.50041,13.4335642,0,52.50047,13.43355,"2",,,"EKT Schippe und Eimer",1,42,2,07:00,18:00,07:00,18:00,07:00,18:00,07:00,18:00,07:00,18:00,30,30,0
570,52.4242111,13.2166439,0,52.42894,13.21567,,,,"EKT Schlachtensee",1,447,2,08:00,16:00,08:00,16:00,08:00,16:00,08:00,16:00,08:00,16:00,16,14,2
1570,52.4767935,13.2962036,1,52.47739,13.30851,"2",,,"EKT Schlange 99",1,448,2,07:30,16:30,07:30,16:30,07:30,16:30,07:30,16:30,07:30,16:30,30,23,7
2330,52.52053,13.35689,0,52.52074,13.35686,"0",,,"EKT Schneckenhaus",1,125,2,07:30,16:30,07:30,16:30,07:30,16:30,07:30,16:30,07:30,16:30,18,18,0
144129,52.53441,13.43219,0,52.5342,13.43224,,,,"EKT Schnick und Schnack",1,449,2,07:30,17:00,07:30,17:00,07:30,17:00,07:30,17:00,07:30,17:00,21,13,8
1618,52.4956904,13.4272009,1,52.50131,13.4229,"2",,,"EKT Schokokids",1,450,1,08:00,16:30,08:00,16:30,08:00,16:30,08:00,16:30,08:00,16:30,21,12,9
980,52.49063899999999,13.4321748,0,52.49062,13.43223,"2","2|3|4",,"EKT Schokoschnuten",1,451,1,06:00,17:00,06:00,17:00,06:00,17:00,06:00,17:00,06:00,17:00,25,15,10
908,52.51647999999999,13.19535,0,52.51641,13.19532,,"2|7",,"EKT Senfkornbande",1,452,2,07:30,16:30,07:30,16:30,07:30,16:30,07:30,16:30,07:00,16:00,42,34,8
1583,52.4967,13.41032,0,52.49667,13.41038,"10|0","2","0|3","EKT Siebenschläfer",1,453,2,09:00,16:00,09:00,16:00,09:00,16:00,09:00,16:00,09:00,16:00,20,17,3
1258,52.47661919999999,13.3297168,0,52.47659,13.3297,"2",,,"EKT Sieglindestr. 8",1,454,2,0,0,0,0,0,0,0,0,0,0,17,13,4
100024,52.56569289999999,13.3880575,1,52.56887,13.39728,,,,"EKT Simsalabim",1,455,2,08:00,16:30,08:00,16:30,08:00,16:30,08:00,16:30,08:00,16:30,16,16,0
539229,52.5375667,13.4263683,0,52.53742,13.42636,,,,"EKT Sockenläufer",1,456,1,0,0,0,0,0,0,0,0,0,0,20,null,null
2620,52.4886834,13.4144021,0,52.48874,13.41424,"2","7","0|3","EKT Sonnenblümchen",1,457,2,07:30,16:00,07:30,16:00,07:30,16:00,07:30,16:00,07:30,16:00,42,29,13
1144,52.53963299999999,13.3503259,0,52.53974,13.35038,"2","4",,"EKT Sonnenblume",1,458,2,08:00,16:00,08:00,16:00,08:00,16:00,08:00,16:00,08:00,16:00,18,12,6
2369,52.54218669999999,13.3595726,0,52.54214,13.35953,,,,"EKT Sparrbande",1,459,2,07:00,16:00,07:00,16:00,07:00,16:00,07:00,16:00,07:00,16:00,13,13,0
1364,52.41370999999999,13.36108,0,52.41372,13.36103,,,,"EKT Spatzennest",1,460,2,0,0,0,0,0,0,0,0,0,0,39,39,0
874,52.5453349,13.2021191,0,52.54541,13.20221,,,,"EKT Spreebande",1,461,2,0,0,0,0,0,0,0,0,0,0,18,18,0
425129,52.4753597,13.3199276,0,52.47537,13.32002,"16","6",,"EKT Spreepferdchen",1,462,1,07:45,16:45,07:45,16:45,07:45,16:45,07:45,16:45,07:45,16:45,21,13,8
2889,52.49221559999999,13.4176673,0,52.4922,13.41748,,,,"EKT Spreepiraten",1,463,2,08:00,16:00,08:00,16:00,08:00,16:00,08:00,16:00,08:00,16:00,23,23,0
649,52.49236,13.39712,0,52.49239,13.39694,"2",,,"EKT Springteufel",1,464,2,08:30,17:00,08:30,17:00,08:30,17:00,08:30,17:00,08:30,17:00,16,16,0
127179,52.54989,13.4537901,0,52.54989,13.45328,"0|2|3","1|4|6",,"EKT Stadt Land Fluss",1,465,2,08:00,17:00,08:00,17:00,08:00,17:00,08:00,17:00,08:00,16:00,18,14,4
173129,52.5639475,13.3962429,0,52.56392,13.39632,"2",,,"EKT Stadtkinder",1,466,1,08:00,17:00,08:00,17:00,08:00,17:00,08:00,17:00,08:00,17:00,21,15,6
675,52.43481,13.34796,0,52.43477,13.34806,,"0|2",,"EKT Stadtpark Steglitz",1,467,2,07:30,16:30,07:30,16:30,07:30,16:30,07:30,16:30,07:30,16:30,18,13,5
731,52.5513,13.35737,0,52.5513,13.35726,"2",,,"EKT Tausendfüßler",1,468,2,08:00,16:00,08:00,16:00,08:00,16:00,08:00,16:00,08:00,16:00,21,21,0
307179,52.54837999999999,13.44766,0,52.54834,13.44769,"6|2",,,"EKT the Coloured World of Kids",1,469,1,07:30,16:30,07:30,16:30,07:30,16:30,07:30,16:30,07:30,16:30,20,20,0
1015,52.52478,13.19376,0,52.5248,13.19362,,,,"EKT Traumzauberbaum",1,470,2,07:15,16:15,07:15,16:15,07:15,16:15,07:15,16:15,07:15,16:15,16,16,0
1527,52.4352187,13.5008369,1,52.42698,13.48983,"2","1",,"EKT Trollkinder",1,471,2,07:00,16:00,07:00,16:00,07:00,16:00,07:00,16:00,07:00,16:00,15,9,6
100043,52.54627319999999,13.3976975,1,52.54691,13.40313,"23|19",,,"EKT uno dos tres",1,472,2,0,0,0,0,0,0,0,0,0,0,22,22,0
305,52.47141000000001,13.44714,0,52.4714,13.44733,,,,"EKT Urmel",1,473,2,08:30,16:30,08:30,16:30,08:30,16:30,08:30,16:30,08:30,16:30,16,null,null
1856,52.39802,13.14557,1,52.44022,13.58279,,,,"EKT Verein Eika Bruja",1,474,2,0,0,0,0,0,0,0,0,0,0,12,12,0
2905,52.44711,13.46112,0,52.44676,13.46108,"10",,,"EKT Vereinigung für Jugendhilfe Berlin",1,475,1,0,0,0,0,0,0,0,0,0,0,150,100,50
568,52.4145242,13.1448363,1,52.53401,13.37915,"12",,,"EKT Wannsee - Kinderhaus Murmelente",1,476,2,08:00,16:30,08:00,16:30,08:00,16:30,08:00,16:30,08:00,16:30,30,24,6
1754,52.52325829999999,13.1999285,0,52.52313,13.19999,,,,"EKT Weißenburger Str.",1,477,2,0,0,0,0,0,0,0,0,0,0,17,17,0
1820,52.4736908,13.3352069,1,52.47883,13.33241,"9|4|2",,,"EKT Wexstr.",1,478,2,07:30,16:30,07:30,16:30,07:30,16:30,07:30,16:30,07:30,15:30,20,14,6
463129,52.4889995,13.4408612,0,52.48898,13.44094,"16",,,"EKT Wichtelstube",1,479,1,08:00,16:00,08:00,16:00,08:00,16:00,08:00,16:00,08:00,16:00,17,12,5
247,52.48672,13.39045,0,52.48679,13.39046,"10",,,"EKT Wildblume",1,67,2,07:00,16:00,07:00,16:00,07:00,16:00,07:00,16:00,07:00,16:00,15,10,5
1815,52.4861136,13.3262094,0,52.48608,13.32639,"13|0",,,"EKT Wilde Hummeln",1,480,2,08:00,16:30,08:00,16:30,08:00,16:30,08:00,16:30,08:00,16:30,17,7,10
1095,52.53833059999999,13.2947121,1,52.56009,13.32457,"2","4",,"EKT Wilde Wiese",1,481,2,06:00,17:00,06:00,17:00,06:00,17:00,06:00,17:00,06:00,15:00,50,30,20
819,52.5143159,13.2882739,0,52.51418,13.28835,,,,"EKT Windmühle",1,482,2,08:00,16:15,08:00,16:15,08:00,16:15,08:00,16:15,08:00,16:15,16,12,4
377129,52.6324192,13.2880722,0,52.6548,13.28528,"2","2|6",,"EKT Wurzelkinder",1,483,2,07:30,17:00,07:30,17:00,07:30,17:00,07:30,17:00,07:30,17:00,15,3,12
717,52.4831491,13.3561101,0,52.48314,13.35588,,,,"EKT Zappzarapp",1,484,2,08:15,15:30,08:15,15:30,08:15,15:30,08:15,15:30,08:15,15:30,15,15,0
2982,52.54637,13.45709,0,52.54635,13.45711,"9|6","3","1","EKT Zilli-Billi-Willi",1,485,2,08:00,17:00,08:00,17:00,08:00,17:00,08:00,17:00,08:00,17:00,22,5,17
446129,52.5482045,13.4485754,0,52.54828,13.44868,"9|6","0|3","1","EKT Zilli-Billi-Willi",1,485,2,08:00,17:00,08:00,17:00,08:00,17:00,08:00,17:00,08:00,17:00,17,17,0
1436,52.4856146,13.433397,0,52.48568,13.43326,,,,"EKT Zottelbär",1,486,2,0,0,0,0,0,0,0,0,0,0,13,13,0
1859,52.4479646,13.2397306,1,52.42806,13.2235,"2",,,"EKT Zwölf Knirpse",1,487,2,08:00,16:00,08:00,16:00,08:00,16:00,08:00,16:00,08:00,16:00,17,17,0
488229,52.43468069999999,13.3060141,0,52.43503,13.30586,,"5","4","el caracol - bilingualer Kindergarten",0,488,1,07:30,16:30,07:30,16:30,07:30,16:30,07:30,16:30,07:30,16:30,60,40,20
573279,52.45889,13.31468,1,52.4888,13.34102,,"5","4","el caracol bilingualer Kindergarten",0,488,1,07:30,16:30,07:30,16:30,07:30,16:30,07:30,16:30,07:30,16:30,55,30,25
122129,52.5511194,13.3769194,1,52.53457,13.39844,"2","0|1|3|4|6","4","El mundo de los ninos",0,489,1,08:00,17:00,08:00,17:00,08:00,17:00,08:00,17:00,08:00,17:00,42,28,14
327129,52.5310582,13.4095746,0,52.53092,13.40948,"2","0|1|3|4|6","4","El mundo de los ninos",0,489,1,08:00,17:00,08:00,17:00,08:00,17:00,08:00,17:00,08:00,17:00,25,17,8
541229,52.53402999999999,13.401,0,52.53425,13.40113,"2","0|1|3|4|6","4","El mundo de los ninos",0,489,1,08:00,17:00,08:00,17:00,08:00,17:00,08:00,17:00,08:00,17:00,65,44,21
751229,52.4893738,13.4507253,0,52.48931,13.45091,"13|0","0|5",,"Elterninitiativ-Kita Kunger Küken",1,490,2,0,0,0,0,0,0,0,0,0,0,25,null,null
957,52.4956904,13.4272009,1,52.50306,13.42231,,,,"Eltern-Kinder-Schülergruppe ",0,491,1,0,0,0,0,0,0,0,0,0,0,30,30,0
609229,52.43951999999999,13.35391,0,52.43945,13.35378,,,,"Eltern-Kind-Gruppe",3,492,4,08:00,13:00,08:00,13:00,08:00,13:00,08:00,13:00,08:00,13:00,15,15,0
956,52.50403000000001,13.42444,0,52.50384,13.42445,,,,"Eltern-Kind-Gruppe Kreuzberg-Nord",0,493,1,0,0,0,0,0,0,0,0,0,0,48,33,15
709279,52.5511194,13.3769194,1,52.53537,13.39815,,,,"Eschkol Kindergarten",0,494,1,0,0,0,0,0,0,0,0,0,0,25,null,null
1904,52.4799423,13.3476274,0,52.47984,13.34759,"3","0","1","Europa-Kindergarten Max und Moritz",0,495,1,07:00,19:00,07:00,19:00,07:00,19:00,07:00,19:00,07:00,19:00,88,53,35
1341,52.41685,13.36951,1,52.592,13.46556,"2","1|4|6",,"Ev. Dreikönigs-Kita",0,496,4,06:30,17:00,06:30,17:00,06:30,17:00,06:30,17:00,06:30,16:00,65,47,18
815,52.51783,13.26348,0,52.51784,13.26237,,,,"Ev. Halbtagskita Neu-Westend",0,497,4,07:45,15:00,07:45,15:00,07:45,15:00,07:45,15:00,07:45,15:00,30,20,10
2362,52.5409999,13.3044598,1,52.54877,13.34962,,,,"Ev. Kinderhaus Kapernaum",0,498,4,07:00,17:00,07:00,17:00,07:00,17:00,07:00,17:00,07:00,17:00,60,60,0
1485,52.5698014,13.3757641,0,52.56979,13.37572,,,,"Ev. Kindertagesstätte",0,499,4,0,0,0,0,0,0,0,0,0,0,59,59,0
571,52.4830386,13.3542784,1,52.48283,13.34803,"2","0|2|3|6|7",,"Ev. Kindertagesstätte Alt-Schöneberg",0,496,4,06:30,17:00,06:30,17:00,06:30,17:00,06:30,17:00,06:30,17:00,70,38,32
1283,52.44703999999999,13.35116,0,52.44702,13.35127,,,,"Ev. Kindertagesstätte Südende",0,500,4,06:30,17:30,06:30,17:30,06:30,17:30,06:30,17:30,06:30,17:30,130,130,0
1481,52.57237,13.309,0,52.57235,13.30957,,,,"Ev. Kita Albert-Schweitzer/Ev. Segenskirchengemeinde",0,501,4,0,0,0,0,0,0,0,0,0,0,100,100,0
504,52.4729,13.29314,1,52.59423,13.40074,"2","2|4|6|7",,"Ev. Kita Alt-Schmargendorf",0,496,4,06:30,17:00,06:30,17:00,06:30,17:00,06:30,17:00,06:30,16:00,47,37,10
1336,52.4610632,13.3789076,0,52.46122,13.37858,"4|2","3|4|6",,"Ev. Kita Alt-Tempelhof",0,496,4,06:30,17:00,06:30,17:00,06:30,17:00,06:30,17:00,06:30,17:00,164,94,70
2494,52.54455,13.38974,0,52.54451,13.38967,,,,"Ev. Kita am Humboldthain",0,498,4,07:00,17:00,07:00,17:00,07:00,17:00,07:00,17:00,07:00,17:00,70,70,0
420,52.47674,13.44475,0,52.47677,13.44463,"4",,,"Ev. Kita Brüdergemeinde",0,502,4,06:00,17:00,06:00,17:00,06:00,17:00,06:00,17:00,06:00,17:00,81,54,27
2927,52.43081000000001,13.45078,0,52.43078,13.45074,,,,"Ev. Kita Coretta King",0,502,4,06:00,17:00,06:00,17:00,06:00,17:00,06:00,17:00,06:00,17:00,136,94,42
2926,52.4717914,13.4662864,0,52.47169,13.46606,"8|4|2",,,"Ev. Kita Debora",0,502,4,06:00,17:00,06:00,17:00,06:00,17:00,06:00,17:00,06:00,17:00,117,85,32
421,52.4228052,13.4574038,1,52.43006,13.47233,"2",,,"Ev. Kita Dreieinigkeit",0,502,4,06:00,17:00,06:00,17:00,06:00,17:00,06:00,17:00,06:00,17:00,119,75,44
2311,52.52208,13.33048,0,52.522,13.33034,,,,"Ev. Kita Erlöser",0,498,4,06:30,17:00,06:30,17:00,06:30,17:00,06:30,17:00,06:30,17:00,60,60,0
173,52.51771,13.45609,0,52.51786,13.45615,,,,"Ev. Kita Galiläa",0,498,4,07:00,17:00,07:00,17:00,07:00,17:00,07:00,17:00,07:00,17:00,70,70,0
1039,52.5109267,13.2223486,0,52.51097,13.22244,"25","6",,"Ev. Kita Grünes Dreieck/Ev. Friedensgem. Charlottenburg",0,503,4,07:30,16:30,07:30,16:30,07:30,16:30,07:30,16:30,07:30,16:30,35,25,10
1777,52.49365239999999,13.2830915,0,52.49357,13.28309,"2","2|4|6|7",,"Ev. Kita Grunewald",0,496,4,07:00,17:00,07:00,17:00,07:00,17:00,07:00,17:00,07:00,17:00,60,45,15
2073,52.56684629999999,13.4413742,0,52.56692,13.44092,,,,"Ev. Kita Heinersdorf",0,498,4,06:30,17:00,06:30,17:00,06:30,17:00,06:30,17:00,06:30,17:00,56,56,0
1409,52.4426,13.44779,0,52.44162,13.44623,,,,"Ev. Kita Hephatha",0,502,4,06:30,17:30,06:30,17:30,06:30,17:30,06:30,17:30,06:30,17:30,81,52,29
1489,52.6173827,13.3121498,0,52.61732,13.31196,,,,"Ev. Kita Hermsdorf",0,504,4,0,0,0,0,0,0,0,0,0,0,100,100,0
1121,52.4480476,13.4519726,1,52.43856,13.43524,,,,"Ev. Kita Johann-Christoph-Blumhardt",0,502,4,08:00,15:00,08:00,15:00,08:00,15:00,08:00,15:00,08:00,15:00,20,9,11
1122,52.4426,13.44779,0,52.4423,13.44631,,,,"Ev. Kita Kirchenwichtel",0,502,4,08:00,15:00,08:00,15:00,08:00,15:00,08:00,15:00,08:00,15:00,15,10,5
642,52.5593318,13.3440306,0,52.55927,13.34405,,,,"Ev. Kita Kornelius",0,498,4,07:00,17:00,07:00,17:00,07:00,17:00,07:00,17:00,07:00,17:00,55,55,0
1411,52.46858169999999,13.4621424,1,52.47272,13.44132,"2",,,"Ev. Kita Magdalenen/Kirchenkr. Neukölln",0,502,4,06:00,17:00,06:00,17:00,06:00,17:00,06:00,17:00,06:00,17:00,122,84,38
1410,52.4284999,13.4551929,1,52.42827,13.45591,"2",,,"Ev. Kita Martin Luther King",0,502,4,06:00,17:00,06:00,17:00,06:00,17:00,06:00,17:00,06:00,17:00,143,108,35
741,52.54148,13.24213,0,52.54143,13.24243,,,,"Ev. Kita Martin-Albertz-Haus",0,505,4,06:00,17:00,06:00,17:00,06:00,17:00,06:00,17:00,06:00,17:00,120,80,40
1086,52.4949826,13.4145966,0,52.49478,13.41374,,,,"Ev. Kita Melanchthon",0,498,4,07:00,17:00,07:00,17:00,07:00,17:00,07:00,17:00,07:00,17:00,50,50,0
2361,52.5478428,13.3591799,0,52.54785,13.3592,,,,"Ev. Kita Nazareth",0,498,4,06:00,16:30,06:00,16:30,06:00,16:30,06:00,16:30,06:00,16:30,48,48,0
2960,52.4187174,13.4165884,0,52.41855,13.41635,"26|2",,,"Ev. Kita Neu-Buckow",0,502,4,06:00,17:00,06:00,17:00,06:00,17:00,06:00,17:00,06:00,17:00,100,70,30
1089,52.4912,13.43175,0,52.49104,13.4319,"26|2",,,"Ev. Kita Nikodemus",0,502,4,06:00,17:00,06:00,17:00,06:00,17:00,06:00,17:00,06:00,17:00,90,60,30
289,52.4638832,13.4390622,0,52.46401,13.43934,,,,"Ev. Kita Philipp Melanchthon",0,502,4,06:00,17:00,06:00,17:00,06:00,17:00,06:00,17:00,06:00,17:00,85,58,27
2785,52.42435,13.46625,0,52.42432,13.46636,,,,"Ev. Kita Regenbogen",0,502,4,06:00,17:00,06:00,17:00,06:00,17:00,06:00,17:00,06:00,17:00,120,80,40
2980,52.5117669,13.4744855,1,52.4558,13.62849,,,,"Ev. Kita Regenbogenfisch",0,498,4,07:00,17:30,07:00,17:30,07:00,17:30,07:00,17:30,07:00,17:30,75,75,0
735,52.51888,13.46564,0,52.51868,13.46603,,,,"Ev. Kita Samariter",0,498,4,07:00,17:00,07:00,17:00,07:00,17:00,07:00,17:00,07:00,17:00,31,31,0
507,52.43542,13.22062,0,52.43536,13.22062,"2","4|6|7",,"Ev. Kita Schlachtensee",0,496,4,07:30,16:30,07:30,16:30,07:30,16:30,07:30,16:30,07:30,16:30,55,43,12
175,52.5066,13.45956,0,52.50667,13.4599,,,,"Ev. Kita Sonnenblume",0,498,4,07:00,17:00,07:00,17:00,07:00,17:00,07:00,17:00,07:00,17:00,100,100,0
39,52.5248111,13.3991541,0,52.52511,13.39912,,,,"Ev. Kita Sophien",0,498,4,07:00,17:00,07:00,17:00,07:00,17:00,07:00,17:00,07:00,17:00,84,84,0
379,52.50053459999999,13.4064671,0,52.50047,13.4066,,,,"Ev. Kita St. Simeon",0,498,4,07:00,17:00,07:00,17:00,07:00,17:00,07:00,17:00,07:00,17:00,90,90,0
2415,52.5121401,13.414046,1,52.50584,13.42752,,,,"Ev. Kita St. Thomas",0,498,4,07:00,17:00,07:00,17:00,07:00,17:00,07:00,17:00,07:00,17:00,40,40,0
2363,52.55860999999999,13.38794,0,52.55861,13.38788,,,,"Ev. Kita Stephanus",0,498,4,07:00,17:00,07:00,17:00,07:00,17:00,07:00,17:00,07:00,17:00,80,80,0
422,52.4615725,13.4790403,1,52.46601,13.4718,"2",,,"Ev. Kita Tabea",0,502,4,06:30,17:00,06:30,17:00,06:30,17:00,06:30,17:00,undefined,undefined,104,77,27
2193,52.5827423,13.5287675,0,52.58276,13.52874,,,,"Ev. Kita Wartenberg",0,498,4,06:00,17:00,06:00,17:00,06:00,17:00,06:00,17:00,06:00,17:00,23,23,0
2108,52.58778,13.36773,1,52.39801,13.58683,,,,"Ev. Kita Wilhelmsruh",0,498,4,06:30,17:30,06:30,17:30,06:30,17:30,06:30,17:30,06:30,17:30,55,55,0
695,52.48469,13.43627,0,52.48464,13.43635,,,,"Ev. Kita/Kirchenkreis Neukölln",0,502,4,06:00,17:00,06:00,17:00,06:00,17:00,06:00,17:00,06:00,17:00,48,38,10
413,52.4643867,13.3916898,0,52.46352,13.39168,,,,"Ev. Paulus-KG Tempelhof",0,506,4,06:30,17:00,06:30,17:00,06:30,17:00,06:30,17:00,06:30,17:00,66,66,0
1044,52.3854127,13.4053402,1,52.49427,13.35367,,,,"Ev. Teilzeit-Kita Goltzstraße",0,507,4,07:30,15:00,07:30,15:00,07:30,15:00,07:30,15:00,07:30,15:00,29,29,0
1414,52.4202569,13.514671,0,52.42014,13.51481,,,,"Ev.Kita Momo",0,502,4,06:00,17:00,06:00,17:00,06:00,17:00,06:00,17:00,06:00,17:00,121,83,38
2887,52.40535999999999,13.40213,0,52.40526,13.40244,,,,"Ev.Teilzeit-Kita im Rackebüller Weg",0,507,4,07:30,14:30,07:30,14:30,07:30,14:30,07:30,14:30,07:30,14:30,21,18,3
2308,52.52473999999999,13.35012,0,52.52483,13.34927,"2",,,"Evangelische Kindertagesstätte St. Johannis",0,508,4,06:00,17:00,06:00,17:00,06:00,17:00,06:00,17:00,06:00,17:00,75,50,25
282,52.4858622,13.3924406,0,52.48597,13.39244,,,,"Evangelische Kita 1",0,498,4,06:00,17:00,06:00,17:00,06:00,17:00,06:00,17:00,06:00,17:00,36,36,0
122,52.55274319999999,13.4137927,0,52.55278,13.41392,,,,"Evangelische Kita Arche",0,509,4,07:00,17:00,07:00,17:00,07:00,17:00,07:00,17:00,07:00,17:00,50,43,7
2419,52.5027059,13.401651,1,52.49019,13.39384,,,,"Evangelische Kita Arche",0,498,4,06:00,17:00,06:00,17:00,06:00,17:00,06:00,17:00,06:00,17:00,98,98,0
2194,52.5536654,13.5035574,0,52.55367,13.50362,,,,"Evangelische Kita Arche Noah",0,498,4,07:00,17:30,07:00,17:30,07:00,17:30,07:00,17:30,07:00,17:30,48,48,0
1783,52.4851564,13.3238016,0,52.48516,13.32379,"2","0|4|7",,"Evangelische Kita Auen",0,496,4,07:00,17:00,07:00,17:00,07:00,17:00,07:00,17:00,07:00,16:00,73,63,10
1660,52.5395991,13.2998172,0,52.53966,13.30004,"4","0|1|2|4|7",,"Evangelische Kita Plötzensee",0,510,4,07:00,17:00,07:00,17:00,07:00,17:00,07:00,17:00,07:00,16:30,65,25,40
775229,52.59508289999999,13.3542346,1,52.60239,13.35953,,,,"Evangelische Kita Regenbogen",0,498,4,0,0,0,0,0,0,0,0,0,0,135,null,null
393129,52.5070391,13.3283954,0,52.51517,13.33466,,,,"Evangelische Kita St. Ursula",0,498,4,07:00,19:00,07:00,19:00,07:00,19:00,07:00,19:00,07:00,19:00,50,50,0
123,52.53476,13.42673,0,52.53484,13.42646,,,,"Evangelische Kita Winsstraße",0,509,4,07:00,17:00,07:00,17:00,07:00,17:00,07:00,17:00,07:00,17:00,50,43,7
404,52.419446,13.2758871,1,52.42235,13.26012,"2",,,"Evangelische Kita Zur Heimat",0,511,4,07:00,17:00,07:00,17:00,07:00,17:00,07:00,17:00,07:00,17:00,70,70,0
2291,52.5522651,13.4593033,0,52.55171,13.45904,,,,"Evangelische Stephanus-Kita",0,509,4,07:00,17:00,07:00,17:00,07:00,17:00,07:00,17:00,07:00,17:00,51,33,18
1943,52.3994711,13.5806814,0,52.40008,13.58137,"5",,,"Evangelischer Forscherkindergarten Apfelbäumchen",0,512,4,06:00,17:00,06:00,17:00,06:00,17:00,06:00,17:00,06:00,17:00,50,50,0
272129,52.5733,13.4024,0,52.57331,13.4023,"16",,,"Filiale Rudolf-Ditzen-Weg",0,513,1,0,0,0,0,0,0,0,0,0,0,28,28,0
2831,52.53395,13.4062,0,52.53375,13.40618,"10|16",,,"Fliederhof Waldorfkindergarten Berlin-Mitte",1,514,2,07:30,16:30,07:30,16:30,07:30,16:30,07:30,16:30,07:30,16:30,41,32,9
1854,52.44654999999999,13.30153,0,52.44638,13.30124,"25",,"1","FlowerKids Kindergarten",0,515,1,07:00,17:30,07:00,17:30,07:00,17:30,07:00,17:30,07:00,17:30,73,55,18
358129,52.54599,13.41073,0,52.54594,13.41056,"24",,,"Folli Folletti",1,516,2,08:15,17:15,08:15,17:15,08:15,17:15,08:15,17:15,08:15,17:15,20,20,0
106129,52.5480801,13.42292,0,52.54802,13.42283,"2",,,"Freche Fledermäuse",0,517,1,08:00,17:00,08:00,17:00,08:00,17:00,08:00,17:00,08:00,17:00,22,8,14
556229,52.5545209,13.4097092,0,52.55447,13.40976,"2|3","1|3|4|6",,"Freude Kindergarten",0,518,1,07:30,16:30,07:30,16:30,07:30,16:30,07:30,16:30,07:30,16:30,28,18,10
675229,52.4609452,13.528007,1,52.45804,13.51107,"2|3","1|3|4|6",,"freude Kita Niederschöneweide",0,518,1,07:30,16:30,07:30,16:30,07:30,16:30,07:30,16:30,07:30,16:30,31,21,10
770229,52.4609452,13.528007,1,52.45787,13.5116,"2","1|3|4|6",,"FREUDE Kita Niederschöneweide 2",0,518,1,07:30,16:30,07:30,16:30,07:30,16:30,07:30,16:30,07:30,16:30,39,24,15
661229,52.52931,13.41319,0,52.52905,13.41359,,,,"Fröbel Kindergarten",0,8,1,06:00,18:00,06:00,18:00,06:00,18:00,06:00,18:00,06:00,18:00,120,72,48
522,52.5123443,13.4055432,0,52.5123,13.40558,"12",,,"FRÖBEL Kindergarten Schatzinsel",0,8,1,06:00,18:00,06:00,18:00,06:00,18:00,06:00,18:00,06:00,18:00,225,156,69
19,52.52346,13.42097,0,52.52336,13.42123,"6|2",,,"FRÖBEL Kindergarten Traumzauberbaum",0,8,1,06:00,19:00,06:00,19:00,06:00,19:00,06:00,19:00,06:00,19:00,240,142,98
810,52.5149449,13.4723379,0,52.51493,13.47214,"6",,,"FRÖBEL Kindergarten Am Ring",0,8,1,06:00,18:00,06:00,18:00,06:00,18:00,06:00,18:00,06:00,18:00,240,157,83
1280,52.4429743,13.3134234,0,52.44283,13.31388,"6",,,"FRÖBEL Kindergarten Augustastrolche",0,8,1,06:00,18:00,06:00,18:00,06:00,18:00,06:00,18:00,06:00,18:00,160,115,45
294129,52.434901,13.534136,0,52.43487,13.53426,,,,"FRÖBEL Kindergarten Campus Kids",0,8,1,06:00,18:00,06:00,18:00,06:00,18:00,06:00,18:00,06:00,18:00,93,59,34
3,52.53532,13.39919,0,52.53523,13.39925,"24|12",,,"FRÖBEL Kindergarten Casa Fantasia",0,8,1,06:00,18:00,06:00,18:00,06:00,18:00,06:00,18:00,06:00,18:00,69,44,25
158,52.520298,13.4301531,0,52.52028,13.43031,"9|6|4|2",,,"FRÖBEL Kindergarten FRÖBELSPATZEN",0,8,1,06:00,18:00,06:00,18:00,06:00,18:00,06:00,18:00,06:00,18:00,230,132,98
1229,52.49425,13.45918,0,52.49436,13.45919,"6|2",,,"FRÖBEL Kindergarten Heureka",0,8,1,06:30,17:30,06:30,17:30,06:30,17:30,06:30,17:30,06:30,17:30,76,52,24
303129,52.46541999999999,13.47347,0,52.46533,13.47358,"6",,,"FRÖBEL Kindergarten Highdechsen",0,8,1,06:00,18:00,06:00,18:00,06:00,18:00,06:00,18:00,06:00,18:00,80,64,16
766229,52.5028689,13.4367203,0,52.50299,13.43657,,,,"FRÖBEL Kindergarten kaleidoscope",0,8,1,0,0,0,0,0,0,0,0,0,0,25,null,null
808,52.51926,13.44391,0,52.51919,13.44394,"6|2",,,"FRÖBEL Kindergarten Kleine Füße-Naseweis",0,8,1,06:00,18:00,06:00,18:00,06:00,18:00,06:00,18:00,06:00,18:00,210,126,84
275129,52.52858,13.39022,0,52.5287,13.39041,"6|4",,,"FRÖBEL Kindergarten Mittendrin",0,8,1,06:00,20:00,06:00,20:00,06:00,20:00,06:00,20:00,06:00,20:00,180,123,57
1206,52.4948744,13.4735612,0,52.49544,13.47438,"6|2",,,"FRÖBEL Kindergarten Palmkernzeile",0,8,1,06:00,18:00,06:00,18:00,06:00,18:00,06:00,18:00,06:00,18:00,156,94,62
226129,52.53297689999999,13.2734747,0,52.53375,13.27461,"6|12",,,"FRÖBEL Kindergarten Siemens Technopark",0,8,1,06:00,20:00,06:00,20:00,06:00,20:00,06:00,20:00,06:00,20:00,115,74,41
2997,52.50192,13.36945,0,52.50125,13.36869,"6|12",,,"FRÖBEL Kindergarten Stepping Stones",0,8,1,06:00,20:00,06:00,20:00,06:00,20:00,06:00,20:00,06:00,20:00,161,97,64
227,52.4934989,13.458632,0,52.49378,13.45803,"6|4",,,"FRÖBEL Kindergarten Wirbelwind",0,8,1,06:30,18:00,06:30,18:00,06:30,18:00,06:30,18:00,06:30,18:00,240,152,88
1281,52.4411395,13.3169633,0,52.44101,13.31666,"6|2",,,"FRÖBEL Kindergarten Zwergenwiese",0,8,1,06:45,17:15,06:45,17:15,06:45,17:15,06:45,17:15,06:45,17:15,36,24,12
224,52.4530406,13.5052261,0,52.45307,13.50505,"9|6|8|4",,,"FRÖBEL Kindergarten-im-Grünen",0,8,1,06:00,18:00,06:00,18:00,06:00,18:00,06:00,18:00,06:00,18:00,240,166,74
801229,52.5564034,13.5639941,1,52.54625,13.57031,,,,"Gemeinschaftsunterkunft Blumberger Damm (Sprachförderung)",0,519,1,0,0,0,0,0,0,0,0,0,0,15,null,null
537279,52.56443,13.21473,0,52.56493,13.2113,,"0|2",,"Gerda und Rolf Schopf Kindertagesstätte",0,30,1,06:00,17:00,06:00,17:00,06:00,17:00,06:00,17:00,06:00,17:00,100,67,33
944,52.5522157,13.3569141,0,52.55199,13.35691,,,,"Groni-Weddinger Kinder- u.Jugendzentrum",1,520,2,07:00,17:00,07:00,17:00,07:00,17:00,07:00,17:00,07:00,17:00,17,11,6
958,52.55016029999999,13.3605515,0,52.55024,13.36069,,,,"Groni-Weddinger Kinder- u.Jugendzentrum",1,520,2,07:00,17:30,07:00,17:30,07:00,17:30,07:00,17:30,07:00,17:30,15,10,5
964,52.5505686,13.3556495,0,52.55057,13.35559,,,,"Groni-Weddinger Kinder- u.Jugendzentrum",1,520,2,07:00,17:30,07:00,17:30,07:00,17:30,07:00,17:30,07:00,17:30,12,9,3
732,52.54995,13.35998,0,52.5501,13.36031,,,,"Groni-Weddinger Kinder- u.Jugendzentrum - Malplaquet 37",1,520,2,07:00,17:00,07:00,17:00,07:00,17:00,07:00,17:00,07:00,17:00,16,16,0
228129,52.4668523,13.3192462,0,52.46689,13.31933,,,,"Happy Kids Kreuznacher Straße",0,521,1,0,0,0,0,0,0,0,0,0,0,20,12,8
1888,52.4693894,13.3253773,1,52.46995,13.33708,,,,"Heilsarmee Kita Volltreffer",0,522,1,07:00,17:00,07:00,17:00,07:00,17:00,07:00,17:00,07:00,16:00,55,35,20
548229,52.5150126,13.2882446,0,52.51498,13.2881,,,,"Heinrich-Zille-Kita",0,523,1,0,0,0,0,0,0,0,0,0,0,25,18,7
2374,52.5413995,13.3537974,0,52.54141,13.35385,"2","1|2|3|4|6","6|2|4|3","Hinterhof-Tiger",1,524,2,07:30,17:00,07:30,17:00,07:30,17:00,07:30,17:00,07:30,17:00,25,15,10
652229,52.38629,13.41139,0,52.38635,13.4112,,,,"Hisa Kita Kirchhainer Damm",0,525,1,0,0,0,0,0,0,0,0,0,0,57,33,24
433,52.4383683,13.5476276,0,52.4383,13.5474,"17","2",,"Humanistische Kita Adlershofer Marktspatzen",0,526,1,06:00,17:30,06:00,17:30,06:00,17:30,06:00,17:30,06:00,17:30,50,50,0
430,52.4481609,13.5102755,0,52.44811,13.5104,"12","2",,"Humanistische Kita Am Park",0,526,1,06:00,18:00,06:00,18:00,06:00,18:00,06:00,18:00,06:00,18:00,84,84,0
209129,52.5019332,13.4554471,0,52.49484,13.47131,"17","2",,"Humanistische Kita Bahrfeldtstraße",0,526,1,07:00,18:00,07:00,18:00,07:00,18:00,07:00,18:00,07:00,17:00,120,120,0
